City_ID,City,Lat,Lng,Max Temp,Humidity,Cloudiness,Wind Speed,Country,Date
0,hami,42.8,93.45,299.66,21,99,3.26,CN,1715239817
1,port-aux-francais,-49.35,70.2167,278.63,79,39,10.97,TF,1715239817
2,dhankuta,26.9833,87.3333,300.31,31,71,4.72,NP,1715239817
3,edinburgh of the seven seas,-37.0676,-12.3116,287.29,66,92,13.54,SH,1715239817
4,kailua-kona,19.6406,-155.9956,299.13,94,40,4.63,US,1715239818
5,bichura,50.5881,107.6022,292.13,32,72,4.58,RU,1715239818
6,strezhevoy,60.7333,77.5889,280.35,88,100,5.36,RU,1715239818
7,port saint john's,-31.6229,29.5448,296.17,65,1,0.59,ZA,1715239818
8,olonkinbyen,70.9221,-8.7187,270.1,89,100,14.66,SJ,1715239818
9,waitangi,-43.9535,-176.5597,282.49,71,100,3.91,NZ,1715239819
10,kisangani,0.5167,25.2,303.02,64,100,1.13,CD,1715239819
11,grytviken,-54.2811,-36.5092,270.06,69,16,2.23,GS,1715239819
12,maych'ew,12.7875,39.5422,294.58,54,23,3.71,ET,1715239819
13,saipan,15.1355,145.701,302.54,84,40,4.63,MP,1715239819
14,mitu,1.1983,-70.1733,296.56,99,100,0.34,CO,1715239820
15,caluula,11.9661,50.7569,303.58,70,100,4.99,SO,1715239820
16,isafjordur,66.0755,-23.124,278.17,60,75,6.17,IS,1715239820
17,el nido,11.1858,119.3956,304.09,68,100,5.09,PH,1715239820
18,yellowknife,62.456,-114.3525,282.44,65,75,3.09,CA,1715239762
19,sisimiut,66.9395,-53.6735,267.33,79,4,3.46,GL,1715239821
20,margaret river,-33.95,115.0667,295.76,40,100,7.7,AU,1715239821
21,ushuaia,-54.8,-68.3,270.96,93,40,2.57,AR,1715239821
22,general acha,-37.377,-64.6043,279.43,45,1,2.85,AR,1715239821
23,touros,-5.1989,-35.4608,298.0,91,66,3.05,BR,1715239821
24,ribeira grande,38.5167,-28.7,289.37,77,20,3.09,PT,1715239822
25,atafu village,-8.5421,-172.5159,302.87,69,100,1.25,TK,1715239822
26,bozova,37.3625,38.5267,295.66,34,68,2.68,TR,1715239822
27,quiberon,47.4841,-3.1196,287.1,74,100,7.6,FR,1715239822
28,mili,6.0815,171.735,301.4,82,76,5.76,MH,1715239822
29,ust-nera,64.5667,143.2,278.08,71,100,2.55,RU,1715239822
30,bilibino,68.0546,166.4372,272.01,91,8,1.12,RU,1715239823
31,kitimat,54.0524,-128.6534,283.36,71,57,1.34,CA,1715239823
32,iqaluit,63.7506,-68.5145,267.0,79,75,2.57,CA,1715239823
33,tamanrasset,22.785,5.5228,300.1,10,0,2.57,DZ,1715239823
34,luderitz,-26.6481,15.1594,292.54,58,1,6.76,NA,1715239823
35,tobelo,1.7284,128.0095,302.9,64,99,1.49,ID,1715239824
36,broome,42.2506,-75.833,285.71,81,75,4.12,US,1715239824
37,brookings,44.3114,-96.7984,284.88,93,100,3.09,US,1715239756
38,haiku-pauwela,20.9219,-156.3051,295.95,80,20,2.57,US,1715239824
39,yanbu,24.0891,38.0637,306.17,35,0,2.06,SA,1715239824
40,tabas,33.5959,56.9244,301.07,26,0,7.08,IR,1715239824
41,poisy,45.9231,6.0644,285.32,76,100,1.03,FR,1715239825
42,avarua,-21.2078,-159.775,300.18,94,75,4.12,CK,1715239825
43,albany,42.6001,-73.9662,287.38,77,10,0.89,US,1715239666
44,fort bragg,35.139,-79.006,294.06,90,0,2.06,US,1715239825
45,saint-philippe,-21.3585,55.7679,300.92,82,83,6.99,RE,1715239825
46,bethel,41.3712,-73.414,288.74,83,0,0.0,US,1715239825
47,vila velha,-20.3297,-40.2925,296.45,97,20,0.45,BR,1715239826
48,wloclawek,52.6482,19.0678,286.41,50,39,1.47,PL,1715239826
49,blackmans bay,-43.0167,147.3167,285.78,93,98,0.72,AU,1715239826
50,naze,28.3667,129.4833,292.66,57,49,5.86,JP,1715239826
51,pitimbu,-7.4706,-34.8086,297.48,86,44,2.96,BR,1715239826
52,college,64.8569,-147.8028,284.14,58,75,3.09,US,1715239827
53,bitkine,11.9801,18.2138,312.13,8,15,7.13,TD,1715239827
54,georgetown,5.4112,100.3354,306.12,69,20,4.63,MY,1715239827
55,balykshi,47.0667,51.8667,286.15,35,0,7.0,KZ,1715239827
56,conception bay south,47.4999,-52.9981,278.1,94,99,2.0,CA,1715239827
57,polyarnyy,69.1989,33.4478,272.25,78,96,3.57,RU,1715239828
58,summerside,46.3959,-63.7876,278.22,93,100,7.2,CA,1715239828
59,winnemucca,40.973,-117.7357,278.74,52,0,2.03,US,1715239600
60,kolwezi,-10.7148,25.4667,296.15,41,100,6.63,CD,1715239828
61,west island,-12.1568,96.8225,303.14,70,100,5.66,CC,1715239828
62,papatowai,-46.5619,169.4708,281.24,75,72,6.14,NZ,1715239829
63,puerto ayora,-0.7393,-90.3518,296.79,98,100,0.89,EC,1715239829
64,pokrov,55.92,39.1769,273.4,50,100,6.48,RU,1715239829
65,sao raimundo nonato,-9.0153,-42.6994,293.45,84,2,1.05,BR,1715239829
66,adamstown,-25.066,-130.1015,294.73,78,86,2.2,PN,1715239829
67,bosaso,11.2842,49.1816,308.14,52,0,9.77,SO,1715239829
68,nemuro,43.3236,145.575,276.99,79,97,4.11,JP,1715239830
69,carnarvon,-24.8667,113.6333,297.83,55,100,4.81,AU,1715239830
70,chimbote,-9.0853,-78.5783,291.96,92,92,2.5,PE,1715239830
71,prainha,-1.8,-53.48,296.11,99,52,1.11,BR,1715239830
72,gobabis,-22.45,18.9667,298.04,27,12,9.63,NA,1715239830
73,wailua homesteads,22.0669,-159.378,295.59,78,75,4.12,US,1715239831
74,thompson,55.7435,-97.8558,277.24,70,40,1.03,CA,1715239831
75,ji'an,27.1172,114.9793,295.67,75,100,3.83,CN,1715239831
76,hithadhoo,-0.6,73.0833,302.58,75,100,4.79,MV,1715239831
77,ancud,-41.8697,-73.8203,282.25,74,100,6.21,CL,1715239831
78,port elizabeth,-33.918,25.5701,294.44,76,100,3.09,ZA,1715239832
79,takum,7.2667,9.9833,302.39,69,100,1.75,NG,1715239832
80,tiksi,71.6872,128.8694,271.99,82,96,2.33,RU,1715239832
81,kalmunai,7.4167,81.8167,304.55,63,97,3.49,LK,1715239832
82,sao joao do paraiso,-15.3136,-42.0144,287.46,97,0,1.38,BR,1715239832
83,puerto natales,-51.7236,-72.4875,272.77,98,96,0.8,CL,1715239833
84,invercargill,-46.4,168.35,282.05,79,86,3.58,NZ,1715239833
85,medina,24.4686,39.6142,304.39,11,0,6.17,SA,1715239761
86,talakan,50.3167,130.3667,287.41,20,5,7.49,RU,1715239833
87,ondjiva,-17.0667,15.7333,298.17,57,8,3.6,AO,1715239833
88,waingapu,-9.6567,120.2641,301.56,66,41,5.72,ID,1715239834
89,tabou,4.423,-7.3528,301.6,80,93,1.03,CI,1715239834
90,poli,-3.3333,36.8,290.58,88,75,4.12,TZ,1715239834
91,bredasdorp,-34.5322,20.0403,289.2,65,0,1.94,ZA,1715239834
92,harper,4.375,-7.7169,301.15,83,100,1.38,LR,1715239834
93,flying fish cove,-10.4217,105.6791,300.97,83,100,5.66,CX,1715239834
94,lihue,21.9789,-159.3672,295.92,78,75,4.12,US,1715239835
95,dikhil,11.5,42.1667,305.94,44,63,3.18,DJ,1715239835
96,toliara,-23.35,43.6667,301.61,46,0,1.99,MG,1715239835
97,ilulissat,69.2167,-51.1,269.16,80,100,3.09,GL,1715239835
98,cuyo,10.8525,121.0086,303.27,68,39,2.82,PH,1715239835
99,comodoro rivadavia,-45.8667,-67.5,276.07,93,96,1.03,AR,1715239584
100,paradip garh,20.3167,86.6167,306.85,56,10,8.52,IN,1715239836
101,puerto baquerizo moreno,-0.9,-89.6,295.74,89,100,4.4,EC,1715239836
102,ribas do rio pardo,-20.4431,-53.7592,294.31,67,62,1.31,BR,1715239837
103,vadso,70.0744,29.7487,273.24,64,75,3.09,NO,1715239837
104,anadyr,64.75,177.4833,267.43,73,75,6.71,RU,1715239837
105,lompoc,34.6391,-120.4579,284.59,93,0,3.09,US,1715239837
106,trincomalee,8.5711,81.2335,302.12,78,68,6.33,LK,1715239837
107,egilsstadir,65.2653,-14.3948,276.1,70,0,3.6,IS,1715239839
108,chukhloma,58.7525,42.6825,271.53,54,100,6.71,RU,1715239840
109,qusmuryn,52.4503,64.6311,294.77,46,100,11.24,KZ,1715239840
110,port mathurin,-19.6833,63.4167,298.56,76,100,11.56,MU,1715239840
111,aasiaat,68.7098,-52.8699,262.69,87,23,2.05,GL,1715239840
112,iskateley,67.6803,53.1512,268.16,88,100,7.15,RU,1715239840
113,badger,64.8,-147.5333,282.79,59,75,3.09,US,1715239677
114,fauske,67.2588,15.3918,280.17,88,100,3.43,NO,1715239841
115,trairi,-3.2778,-39.2689,296.3,98,85,3.31,BR,1715239841
116,sola,-13.8833,167.55,299.62,65,100,10.24,VU,1715239841
117,ourem,39.6417,-8.5919,291.74,48,100,2.38,PT,1715239841
118,st. john's,47.5649,-52.7093,278.23,93,75,3.09,CA,1715239809
119,maine soroa,13.2114,12.0241,309.73,12,68,3.83,NE,1715239841
120,lebu,-37.6167,-73.65,281.0,85,100,2.06,CL,1715239842
121,kayenta,36.7278,-110.2546,280.74,27,96,2.6,US,1715239842
122,la ronge,55.1001,-105.2842,286.29,71,100,3.6,CA,1715239842
123,hawaiian paradise park,19.5933,-154.9731,294.84,96,40,2.06,US,1715239842
124,dwarka,22.2394,68.9678,303.25,70,0,5.04,IN,1715239842
125,'ali al gharbi,32.4633,46.6864,302.15,19,0,7.24,IQ,1715239843
126,chiredzi,-21.05,31.6667,298.33,53,0,2.67,ZW,1715239843
127,notodden,59.5594,9.2585,285.37,59,100,2.02,NO,1715239843
128,severobaykal'sk,55.65,109.3167,275.65,69,98,2.59,RU,1715239843
129,bhimunipatnam,17.8833,83.4333,304.88,63,12,7.19,IN,1715239843
130,tosontsengel,48.7567,98.2839,287.33,30,74,11.95,MN,1715239844
131,tralee,52.2704,-9.7026,286.02,78,100,1.57,IE,1715239844
132,miedzyrzec podlaski,51.9864,22.7825,286.39,54,27,2.71,PL,1715239844
133,kodiak,57.79,-152.4072,273.88,69,100,4.63,US,1715239844
134,kirkwood,38.5834,-90.4068,290.66,95,20,0.89,US,1715239844
135,punta arenas,-53.15,-70.9167,276.21,87,75,3.6,CL,1715239845
136,mwingi,-0.9344,38.0601,297.91,66,87,4.21,KE,1715239845
137,serhiyivka,46.0272,30.3768,287.07,59,100,7.09,UA,1715239845
138,codrington,-38.2667,141.9667,287.8,73,86,3.51,AU,1715239845
139,la passe,45.5549,-0.8967,286.71,76,9,6.26,FR,1715239845
140,westport,41.1415,-73.3579,290.38,80,0,1.79,US,1715239845
141,krasnyy chikoy,50.3643,108.7512,286.83,55,100,2.03,RU,1715239846
142,tazovsky,67.4667,78.7,267.86,86,51,3.18,RU,1715239846
143,timaru,-44.4,171.25,277.63,57,6,1.34,NZ,1715239820
144,praya,14.9215,-23.5087,295.45,83,40,0.51,CV,1715239846
145,mount gambier,-37.8333,140.7667,286.51,71,38,2.22,AU,1715239846
146,santa ana de yacuma,-13.75,-65.4333,299.05,83,94,1.35,BO,1715239846
147,la almunia de dona godina,41.4767,-1.3745,291.03,37,4,0.95,ES,1715239847
148,arkhangel'sk,64.5401,40.5433,271.21,74,100,8.0,RU,1715239847
149,afaahiti,-17.75,-149.2833,298.08,77,79,7.42,PF,1715239847
150,weno,7.4515,151.8468,301.12,83,100,3.09,FM,1715239847
151,bloomington,44.8408,-93.2983,287.07,67,20,5.14,US,1715239847
152,yangjiang,21.85,111.9667,299.93,73,95,6.21,CN,1715239669
153,fale old settlement,-9.3852,-171.2468,302.54,72,100,2.12,TK,1715239848
154,saudarkrokur,65.7461,-19.6394,276.81,65,39,5.88,IS,1715239848
155,vilyuchinsk,52.9306,158.4028,283.3,72,10,6.41,RU,1715239848
156,chonchi,-42.6128,-73.8092,279.71,91,76,2.53,CL,1715239848
157,palmer,42.1584,-72.3287,287.09,90,0,2.09,US,1715239574
158,usogorsk,63.4106,48.6872,274.08,98,100,2.86,RU,1715239849
159,new norfolk,-42.7826,147.0587,286.44,99,58,1.19,AU,1715239849
160,gao,16.6362,1.637,310.4,7,7,7.63,ML,1715239849
161,samarinda,-0.5,117.15,299.66,86,100,1.52,ID,1715239849
162,vorgashor,67.5833,63.95,270.82,74,100,10.85,RU,1715239849
163,acajutla,13.5928,-89.8275,301.57,75,100,1.41,SV,1715239849
164,gadzhiyevo,69.2551,33.3362,272.4,79,94,3.41,RU,1715239850
165,smithers,54.7804,-127.1743,278.33,75,0,1.03,CA,1715239806
166,kirando,-7.4167,30.6,297.97,66,93,1.85,TZ,1715239850
167,paveh,35.0434,46.3565,289.01,40,0,0.43,IR,1715239850
168,caiaponia,-16.9567,-51.8103,291.91,74,2,1.45,BR,1715239850
169,berdigestyakh,62.0989,126.6992,274.59,62,100,4.81,RU,1715239851
170,kingston,17.997,-76.7936,300.68,78,20,1.54,JM,1715239851
171,pedernales,18.0384,-71.744,300.0,72,96,0.89,DO,1715239851
172,hermanus,-34.4187,19.2345,288.68,66,0,2.0,ZA,1715239851
173,santana,-0.0583,-51.1817,299.25,94,100,0.0,BR,1715239851
174,malanje,-9.5402,16.341,298.09,60,100,3.15,AO,1715239851
175,whitehorse,60.7161,-135.0538,278.72,56,100,3.58,CA,1715239852
176,turpan,42.9333,89.1667,307.73,12,0,4.95,CN,1715239852
177,utrik,11.2278,169.8474,300.46,81,100,8.21,MH,1715239852
178,skelleftea,64.7507,20.9528,277.35,60,0,3.09,SE,1715239852
179,san julian,21.0167,-102.1667,293.86,19,23,0.85,MX,1715239852
180,north madison,38.7678,-85.3966,290.92,100,100,6.69,US,1715239853
181,labytnangi,66.6572,66.4183,267.25,92,100,12.69,RU,1715239853
182,kuqa,41.7278,82.9364,305.36,9,0,4.69,CN,1715239853
183,magadan,59.5667,150.8,276.22,86,36,1.29,RU,1715239853
184,souillac,-20.5167,57.5167,300.36,65,75,8.23,MU,1715239853
185,zaragoza,41.6561,-0.8773,292.05,66,0,1.54,ES,1715239853
186,chernyshevsk,52.5243,117.0174,291.85,17,100,2.45,RU,1715239854
187,sur,22.5667,59.5289,308.46,39,0,3.32,OM,1715239854
188,nikolayevsk-on-amure,53.1406,140.73,284.38,80,100,3.13,RU,1715239854
189,longonjo,-12.9067,15.2533,298.01,58,48,1.51,AO,1715239854
190,tarnogskiy gorodok,60.4997,43.5761,273.12,76,100,6.59,RU,1715239854
191,puerto aysen,-45.4,-72.7,276.24,99,100,1.07,CL,1715239855
192,fredericksburg,38.3032,-77.4605,292.12,92,0,0.0,US,1715239830
193,klyuchi,52.2667,79.1667,298.23,27,40,6.2,RU,1715239855
194,mil'kovo,55.6078,37.7956,277.28,59,100,7.54,RU,1715239855
195,dubbo,-32.25,148.6167,291.22,63,100,2.57,AU,1715239856
196,hamilton,39.1834,-84.5333,292.82,89,40,1.54,US,1715239856
197,narsingi,18.0333,78.4333,310.29,24,67,1.4,IN,1715239856
198,alice springs,-23.7,133.8833,296.9,33,40,5.66,AU,1715239803
199,goiatuba,-18.0125,-49.3547,290.0,72,0,2.31,BR,1715239856
200,qaqortoq,60.7167,-46.0333,272.68,79,82,2.21,GL,1715239857
201,guaruja,-23.9931,-46.2564,300.87,26,36,3.69,BR,1715239857
202,constitucion,-35.3333,-72.4167,280.33,73,100,2.14,CL,1715239857
203,cidreira,-30.1811,-50.2056,290.51,85,17,5.0,BR,1715239857
204,olinda,-8.0089,-34.8553,298.0,100,75,2.57,BR,1715239720
205,san antonio de pale,-1.4014,5.6325,300.43,84,95,5.38,GQ,1715239857
206,port alfred,-33.5906,26.891,293.25,94,9,1.05,ZA,1715239858
207,fortuna,40.5982,-124.1573,282.55,94,0,3.6,US,1715239858
208,longyearbyen,78.2186,15.6401,274.06,69,40,9.26,SJ,1715239858
209,uturoa,-16.7333,-151.4333,301.03,74,75,5.81,PF,1715239858
210,muroto-misakicho,33.2833,134.15,290.45,50,0,3.14,JP,1715239858
211,porto novo,6.4965,2.6036,301.05,65,98,3.18,BJ,1715239858
212,talnakh,69.4865,88.3972,266.6,81,15,1.69,RU,1715239859
213,luxeuil-les-bains,47.8171,6.365,285.0,87,0,0.51,FR,1715239859
214,port lincoln,-34.7333,135.8667,289.12,70,0,4.39,AU,1715239859
215,san patricio,28.017,-97.5169,300.84,97,95,3.12,US,1715239859
216,east london,-33.0153,27.9116,293.67,88,20,2.57,ZA,1715239859
217,crane,31.3974,-102.3501,297.93,15,19,4.57,US,1715239860
218,palapag,12.5458,125.1147,303.02,66,100,3.65,PH,1715239860
219,tuy hoa,13.0833,109.3,304.36,62,74,4.92,VN,1715239860
220,abra pampa,-22.7205,-65.697,279.49,88,1,5.5,AR,1715239860
221,hemsby,52.6971,1.6918,288.36,79,100,3.81,GB,1715239860
222,vilyuysk,63.7553,121.6247,269.26,95,100,4.02,RU,1715239861
223,buka,40.8108,69.1986,306.53,25,94,5.25,UZ,1715239861
224,ciudad constitucion,25.0369,-111.6644,288.01,91,0,3.52,MX,1715239861
225,nagqu,31.5,92.0,276.97,64,100,5.12,CN,1715239861
226,mazagao,-0.115,-51.2894,299.18,98,98,1.02,BR,1715239861
227,santa caterina villarmosa,37.5911,14.0363,286.41,94,100,5.83,IT,1715239862
228,beloyarskiy,63.7119,66.6722,273.71,99,100,4.47,RU,1715239862
229,santa elena de uairen,4.6167,-61.1333,292.63,94,56,0.74,VE,1715239862
230,tsiombe,-25.3,45.4833,301.45,45,0,2.99,MG,1715239862
231,sao tome,0.3365,6.7273,301.17,89,75,5.14,ST,1715239862
232,shache,38.4167,77.2406,306.42,9,0,2.16,CN,1715239863
233,hilo,19.7297,-155.09,294.96,96,40,2.06,US,1715239863
234,sept-iles,50.2001,-66.3821,277.44,70,75,4.12,CA,1715239863
235,happy valley-goose bay,53.3168,-60.3315,273.32,74,100,2.06,CA,1715239863
236,gulf shores,30.246,-87.7008,300.56,79,100,5.14,US,1715239863
237,miraflores de la sierra,40.8155,-3.7621,287.2,65,100,1.4,ES,1715239863
238,jamestown,42.097,-79.2353,282.92,100,75,4.12,US,1715239864
239,warangal,18.0,79.5833,310.79,33,1,3.94,IN,1715239864
240,ibeto,10.4854,5.145,304.67,53,51,3.01,NG,1715239864
241,lubango,-14.9172,13.4925,296.07,64,37,2.06,AO,1715239864
242,mglin,53.0591,32.8475,277.99,34,19,4.55,RU,1715239864
243,coahuayana de hidalgo,18.7,-103.6583,293.51,94,9,1.13,MX,1715239865
244,prince rupert,54.3161,-130.3201,283.2,79,100,6.17,CA,1715239865
245,sinabang,2.4803,96.3801,303.26,73,37,0.75,ID,1715239865
246,nar'yan-mar,67.6713,53.087,268.21,88,100,7.15,RU,1715239865
247,luena,-11.7833,19.9167,296.25,56,15,4.63,AO,1715239865
248,constantia,44.1833,28.65,288.54,72,100,8.36,RO,1715239865
249,praia da vitoria,38.7333,-27.0667,288.29,88,20,4.05,PT,1715239866
250,valparaiso,-33.0393,-71.6273,282.12,87,0,2.06,CL,1715239866
251,castillos,-34.1667,-53.8333,281.23,79,0,2.84,UY,1715239866
252,saldanha,-33.0117,17.9442,286.18,68,0,1.52,ZA,1715239866
253,micheweni,-4.9667,39.8333,300.49,80,100,6.21,TZ,1715239866
254,kulhudhuffushi,6.6221,73.07,303.03,74,99,4.74,MV,1715239867
255,kruisfontein,-34.0033,24.7314,291.97,63,0,1.89,ZA,1715239867
256,bamboo flat,11.7,92.7167,307.2,62,40,4.63,IN,1715239867
257,gerash,27.6652,54.1371,302.23,12,0,7.13,IR,1715239867
258,san juan de miraflores,-12.1629,-76.9635,292.13,84,100,2.88,PE,1715239867
259,hasaki,35.7333,140.8333,289.42,63,66,6.28,JP,1715239868
260,labasa,-16.4167,179.3833,295.32,78,27,3.39,FJ,1715239868
261,hargeysa,9.56,44.065,300.54,49,80,5.55,SO,1715239580
262,yemetsk,63.4721,41.7941,272.36,87,100,6.99,RU,1715239868
263,howard springs,-12.497,131.047,306.47,63,66,3.04,AU,1715239868
264,kyosai,34.8503,128.5886,293.13,71,0,4.78,KR,1715239868
265,fukuecho,32.6881,128.8419,292.35,59,20,5.66,JP,1715239869
266,petropavlovsk-kamchatsky,53.0452,158.6483,282.48,67,75,10.0,RU,1715239869
267,pauri,30.15,78.7833,302.97,33,6,4.17,IN,1715239869
268,totness,5.8833,-56.3167,298.78,87,96,4.41,SR,1715239869
269,lazaro cardenas,17.9583,-102.2,296.08,87,30,1.23,MX,1715239869
270,nizhnekamsk,55.6366,51.8245,277.59,56,75,5.0,RU,1715239870
271,calbuco,-41.768,-73.1273,281.71,77,100,4.71,CL,1715239870
272,enewetak,11.3474,162.3373,300.59,80,87,9.32,MH,1715239870
273,trindade,-16.6494,-49.4889,291.01,75,2,1.98,BR,1715239870
274,ketchikan,55.3422,-131.6461,282.41,87,100,4.63,US,1715239870
275,northam,51.0333,-4.2167,286.82,93,97,1.98,GB,1715239870
276,pukchil-lodongjagu,40.2019,125.7483,292.31,53,66,2.74,KP,1715239871
277,riosucio,5.4216,-75.7032,289.26,100,100,0.24,CO,1715239871
278,stanley,54.868,-1.6985,286.22,84,20,4.63,GB,1715239871
279,varena,54.2167,24.5667,283.64,43,99,1.41,LT,1715239871
280,rongelap,11.1635,166.8941,300.32,77,27,8.25,MH,1715239871
281,farasan,16.7022,42.1183,303.07,70,9,2.8,SA,1715239872
282,bakanas,44.8081,76.2772,305.99,18,51,3.72,KZ,1715239872
283,sai buri,6.7013,101.6168,305.99,61,88,5.17,TH,1715239872
284,yerba buena,-26.8167,-65.3167,285.13,73,100,0.8,AR,1715239872
285,las choapas,17.9333,-94.0833,299.25,51,98,1.94,MX,1715239872
286,nabire,-3.3667,135.4833,300.86,84,100,1.27,ID,1715239873
287,yermakovskoye,53.2831,92.4003,290.16,31,96,3.85,RU,1715239873
288,faya-largeau,17.9257,19.1043,310.09,9,0,7.2,TD,1715239873
289,noumea,-22.2763,166.4572,297.59,99,100,6.66,NC,1715239809
290,ross on wye,51.9167,-2.5667,288.96,82,87,0.89,GB,1715239873
291,ulladulla,-35.35,150.4667,289.34,76,82,1.21,AU,1715239874
292,yorkville,41.6411,-88.4473,292.3,54,100,7.72,US,1715239855
293,antsiranana,-12.2787,49.2917,302.57,58,20,9.26,MG,1715239874
294,kuzovatovo,53.5468,47.6866,276.94,59,100,5.86,RU,1715239874
295,dompu,-8.5356,118.4622,302.17,72,85,0.29,ID,1715239874
296,vila franca do campo,37.7167,-25.4333,291.42,99,78,2.17,PT,1715239874
297,kavaratti,10.5669,72.642,303.19,68,100,3.89,IN,1715239875
298,santa cruz,-17.8,-63.1667,292.85,94,100,7.72,BO,1715239875
299,hadibu,12.65,54.0333,304.26,62,100,1.34,YE,1715239875
300,ceeldheer,3.8488,47.1806,306.29,54,49,3.97,SO,1715239875
301,udachny,66.4167,112.4,268.95,68,100,6.1,RU,1715239875
302,boyolangu,-8.1181,111.8935,300.61,80,66,3.7,ID,1715239876
303,karor,31.2274,70.9492,316.11,7,100,1.11,PK,1715239876
304,otaci,48.43,27.7939,288.37,48,98,3.28,MD,1715239876
305,jinka,5.65,36.65,294.06,85,91,0.96,ET,1715239876
306,claveria,18.6074,121.0832,299.64,85,80,7.7,PH,1715239876
307,haraiya,26.8,82.4667,300.41,57,100,7.02,IN,1715239877
308,guanica,17.9716,-66.908,299.8,68,22,2.18,PR,1715239877
309,sault ste. marie,46.5168,-84.3333,283.31,61,40,6.69,CA,1715239744
310,sechura,-5.5569,-80.8222,294.11,78,100,4.78,PE,1715239877
311,bela,25.9333,81.9833,306.51,39,93,7.92,IN,1715239877
312,khandyga,62.6667,135.6,276.78,88,100,3.08,RU,1715239878
313,edmundston,47.3737,-68.3251,280.28,68,100,4.63,CA,1715239878
314,ta`u,-14.2336,-169.5144,301.88,80,100,6.55,AS,1715239878
315,irymple,-34.25,142.1667,292.64,58,100,3.06,AU,1715239878
316,holualoa,19.6228,-155.9522,297.06,94,40,4.63,US,1715239878
317,centerville,39.6284,-84.1594,292.53,83,75,1.79,US,1715239879
318,susanville,40.4163,-120.653,281.38,54,0,2.68,US,1715239879
319,kaedi,16.1465,-13.5047,306.94,9,16,0.13,MR,1715239879
320,silver city,32.7701,-108.2803,283.88,37,0,4.12,US,1715239879
321,limon,10.0,-83.0333,298.74,83,94,1.41,CR,1715239880
322,dunedin,-45.8742,170.5036,277.48,81,13,0.45,NZ,1715239803
323,tromso,69.6496,18.957,279.16,52,0,3.6,NO,1715239880
324,gaspe,48.8334,-64.4819,278.1,87,100,0.0,CA,1715239881
325,shingu,33.7333,135.9833,290.65,41,0,1.46,JP,1715239881
326,lucas,41.6501,-83.6666,286.23,80,75,5.14,US,1715239881
327,ponta delgada,37.7333,-25.6667,291.59,88,20,3.09,PT,1715239881
328,port augusta,-32.5,137.7667,293.35,44,68,5.96,AU,1715239881
329,hacibektas,38.9408,34.5577,285.92,55,0,4.63,TR,1715239882
330,nishinoomote,30.7333,131.0,293.46,59,40,1.03,JP,1715239884
331,alofi,-19.0595,-169.9187,296.09,88,100,4.12,NU,1715239884
332,tokuyama,34.05,131.8167,291.94,45,0,1.85,JP,1715239884
333,ulsteinvik,62.3432,5.8487,284.81,88,100,4.02,NO,1715239884
334,domna,51.8971,113.1573,293.47,15,100,5.0,RU,1715239884
335,saint-pierre,-21.3393,55.4781,300.97,57,0,13.38,RE,1715239885
336,impfondo,1.6381,18.0667,298.62,82,100,0.72,CG,1715239885
337,san-pedro,4.7485,-6.6363,301.38,82,100,1.19,CI,1715239885
338,apolinario saravia,-24.4328,-63.9954,288.29,53,99,3.54,AR,1715239885
339,fisterra,42.9049,-9.2629,289.35,73,100,1.06,ES,1715239885
340,kalevala,65.2,31.1667,270.42,91,95,1.79,RU,1715239885
341,susuman,62.7833,148.1667,275.36,68,55,0.45,RU,1715239886
342,chaiyaphum,15.75,102.0,308.04,32,97,3.33,TH,1715239886
343,richards bay,-28.783,32.0377,298.83,58,0,3.64,ZA,1715239886
344,namibe,-15.1961,12.1522,299.9,54,70,3.01,AO,1715239886
345,santa ines,-3.6667,-45.38,296.38,97,8,1.3,BR,1715239886
346,gisborne,-38.6533,178.0042,284.06,66,97,10.98,NZ,1715239887
347,masallatah,32.6167,14.0,290.76,58,8,9.03,LY,1715239887
348,oranjemund,-28.55,16.4333,288.98,78,0,5.23,NA,1715239887
349,tafuna,-14.3358,-170.72,301.12,83,75,1.54,AS,1715239887
350,daru,-9.0763,143.2092,299.08,91,100,8.14,PG,1715239887
351,lensk,60.7253,114.9278,280.37,42,100,3.06,RU,1715239888
352,cabo san lucas,22.8909,-109.9124,296.82,47,23,6.26,MX,1715239829
353,calimesa,33.9882,-117.053,288.19,79,0,0.45,US,1715239888
354,morant bay,17.8815,-76.4093,300.94,87,16,2.9,JM,1715239888
355,kapuskasing,49.4169,-82.4331,278.2,75,100,3.6,CA,1715239712
356,tome acu,-2.4189,-48.1522,296.24,99,69,0.43,BR,1715239888
357,sitka,57.0531,-135.33,278.01,95,100,3.89,US,1715239888
358,nicoya,10.1483,-85.452,299.02,90,100,1.13,CR,1715239889
359,yuzhno-kurilsk,44.0306,145.8556,276.14,95,81,3.03,RU,1715239889
360,kribi,2.95,9.9167,298.13,85,100,2.08,CM,1715239889
361,hakodate,41.7758,140.7367,284.32,66,20,6.17,JP,1715239889
362,portland,45.5234,-122.6762,286.24,64,0,2.57,US,1715239609
363,rouyn-noranda,48.2398,-79.0288,280.2,65,100,3.09,CA,1715239890
364,west bay,19.3667,-81.4167,299.3,88,51,5.3,KY,1715239890
365,bata,1.8639,9.7658,298.64,84,100,2.19,GQ,1715239890
366,dakhla,23.6848,-15.958,291.16,100,75,5.14,EH,1715239890
367,puerto cabezas,14.0351,-83.3888,299.57,84,100,1.98,NI,1715239890
368,ravar,31.2656,56.8055,301.06,8,0,3.76,IR,1715239890
369,pathein,16.7833,94.7333,312.57,32,28,7.51,MM,1715239891
370,ciudad madero,22.2667,-97.8333,300.96,88,85,4.69,MX,1715239891
371,eastham,41.8301,-69.9739,283.16,97,75,1.54,US,1715239776
372,mwene-ditu,-7.0,23.45,300.77,47,40,3.7,CD,1715239892
373,hirara,24.8,125.2833,299.3,57,40,5.66,JP,1715239892
374,xining,36.6167,101.7667,295.26,28,44,6.62,CN,1715239848
375,princeville,45.7668,-61.2985,278.38,95,100,3.6,CA,1715239893
376,kapa'a,22.0752,-159.319,296.33,78,75,4.12,US,1715239893
377,shakawe,-18.3667,21.85,299.48,26,0,3.3,BW,1715239893
378,montehermoso,40.0437,-6.3389,289.74,44,100,2.03,ES,1715239893
379,saint-francois,46.4154,3.9054,285.6,100,100,1.54,FR,1715239893
380,puerto lempira,15.2667,-83.7667,298.91,86,48,2.39,HN,1715239894
381,pauini,-7.7136,-66.9764,298.41,89,92,0.57,BR,1715239894
382,howrah,22.5892,88.3103,305.15,70,75,3.09,IN,1715239894
383,mozarlandia,-14.7447,-50.5706,294.09,65,0,1.91,BR,1715239894
384,rio grande,-32.035,-52.0986,286.26,85,11,6.34,BR,1715239894
385,turtas,58.9417,69.1325,285.77,76,100,6.38,RU,1715239895
386,millington,35.3415,-89.8973,294.92,95,75,0.0,US,1715239895
387,kirkuk,35.4681,44.3922,296.81,32,0,2.41,IQ,1715239895
388,najaf,31.9985,44.3398,300.03,26,0,0.0,IQ,1715239895
389,shimabara,32.7833,130.3667,295.32,46,0,4.61,JP,1715239895
390,dapa,9.7594,126.0531,302.07,73,93,4.33,PH,1715239896
391,pariaman,-0.619,100.12,305.18,72,46,3.46,ID,1715239896
392,puerto yuca,2.9383,-73.2083,296.31,100,100,1.14,CO,1715239896
393,ghat,24.9647,10.1728,299.48,25,17,5.06,LY,1715239896
394,puerto maldonado,-12.6,-69.1833,298.27,91,100,0.56,PE,1715239896
395,ganshui,28.7422,106.7111,294.42,86,100,0.76,CN,1715239897
396,at taraf,25.3628,49.725,305.45,16,7,8.77,SA,1715239897
397,eten,-6.9081,-79.8642,291.29,94,20,4.63,PE,1715239897
398,arraial do cabo,-22.9661,-42.0278,296.47,92,23,6.1,BR,1715239897
399,heroica matamoros,25.8833,-97.5,301.49,89,100,7.72,MX,1715239897
400,nizhneudinsk,54.9076,99.0276,283.39,48,87,7.49,RU,1715239898
401,florencia,43.7667,11.25,293.87,62,0,6.71,IT,1715239898
402,wanning,18.8003,110.3967,302.61,66,99,4.41,CN,1715239898
403,malango,-2.9627,119.9001,296.24,96,92,1.31,ID,1715239898
404,margate,51.3813,1.3862,286.41,91,100,0.89,GB,1715239898
405,berberati,4.2612,15.7922,296.99,94,75,3.09,CF,1715239899
406,puerto quijarro,-17.7833,-57.7667,297.06,67,7,0.15,BO,1715239899
407,edd,13.9297,41.6925,304.97,66,2,4.45,ER,1715239899
408,bonny,4.4522,7.1681,300.73,85,100,4.89,NG,1715239899
409,az zawr,29.4425,48.2747,302.6,44,0,2.41,KW,1715239899
410,nieuw amsterdam,5.8833,-55.0833,299.24,91,47,3.47,SR,1715239899
411,zalingei,12.9096,23.4741,307.28,11,100,1.67,SD,1715239900
412,kouango,4.9934,19.9619,304.92,51,87,2.52,CF,1715239900
413,umluj,25.0213,37.2685,302.07,45,2,3.41,SA,1715239900
414,ivankiv,50.9386,29.8943,282.83,39,100,2.41,UA,1715239900
415,dryden,49.7833,-92.7503,278.31,75,0,2.57,CA,1715239900
416,long beach,33.767,-118.1892,289.29,89,75,2.06,US,1715239702
417,antalaha,-14.9003,50.2788,299.47,70,100,5.45,MG,1715239901
418,sultanah,24.4926,39.5857,304.4,11,0,6.17,SA,1715239901
419,bandipura,34.4167,74.65,300.76,24,0,1.77,IN,1715239901
420,buzuluk,52.7807,52.2635,280.35,49,100,4.92,RU,1715239810
421,tshabong,-26.05,22.45,299.14,25,5,5.62,BW,1715239901
422,chibougamau,49.9168,-74.3659,277.94,65,100,3.6,CA,1715239902
423,rengali,21.6333,84.05,310.3,25,2,4.7,IN,1715239902
424,charters towers,-20.1,146.2667,297.14,52,97,2.82,AU,1715239902
425,tofol,5.3248,163.0078,301.75,80,97,8.39,FM,1715239902
426,lagos,6.5833,3.75,302.28,73,55,1.6,NG,1715239088
427,pisco,-13.7,-76.2167,291.18,94,75,1.03,PE,1715239902
428,huarmey,-10.0681,-78.1522,292.18,92,84,1.85,PE,1715239903
429,queenstown,-31.8976,26.8753,296.79,26,5,3.3,ZA,1715239903
430,owatonna,44.0839,-93.226,288.47,69,40,2.57,US,1715239903
431,kittila,67.6647,24.8936,275.23,44,0,4.12,FI,1715239903
432,atar,20.5169,-13.0499,306.11,9,86,3.37,MR,1715239903
433,tokmak,47.2514,35.7058,288.61,37,100,4.2,UA,1715239903
434,coari,-4.085,-63.1414,296.82,99,70,1.1,BR,1715239904
435,castel di sangro,41.7737,14.1035,287.69,76,100,3.77,IT,1715239904
436,kiunga,-6.1219,141.2906,298.14,96,100,0.61,PG,1715239905
437,aitape,-3.1374,142.3475,298.56,94,100,1.64,PG,1715239905
438,soto la marina,23.7667,-98.2167,301.38,68,99,0.93,MX,1715239905
439,annaba,36.9,7.7667,290.13,82,40,3.6,DZ,1715239905
440,kununurra,-15.7667,128.7333,306.14,33,77,3.6,AU,1715239906
441,rundu,-17.9333,19.7667,299.98,20,0,4.42,NA,1715239908
442,selfoss,63.9331,-20.9971,277.06,68,81,1.15,IS,1715239908
443,pocone,-16.2567,-56.6228,296.77,68,54,2.32,BR,1715239908
444,mount isa,-20.7333,139.5,303.02,45,99,3.09,AU,1715239908
445,bodaybo,57.8506,114.1933,284.6,64,95,0.72,RU,1715239909
446,vorkuta,67.5,64.0,270.99,74,100,9.39,RU,1715239909
447,vernon,50.2581,-119.2691,284.98,49,5,3.6,CA,1715239807
448,kanina khas,28.3333,76.3167,314.21,15,0,2.93,IN,1715239909
449,i-n-salah,27.1935,2.4607,299.84,16,77,10.66,DZ,1715239909
450,mytilene,39.11,26.5547,295.05,60,20,0.0,GR,1715239909
451,nogliki,51.8333,143.1667,282.78,47,1,4.92,RU,1715239910
452,kaoma,-14.7833,24.8,298.56,31,83,4.75,ZM,1715239910
453,ormara,25.2088,64.6357,299.78,85,0,6.87,PK,1715239910
454,manggar,-2.8833,108.2667,303.41,65,71,4.25,ID,1715239910
455,horta,38.5333,-28.6333,288.95,82,20,3.09,PT,1715239910
456,osogbo,7.7667,4.5667,300.99,68,81,3.37,NG,1715239911
457,san martin,-33.081,-68.4681,276.45,34,0,2.41,AR,1715239911
458,wynyard,-41.0,145.7167,286.88,79,21,1.59,AU,1715239911
459,grantsville,40.5999,-112.4644,280.73,72,100,0.0,US,1715239911
460,jayapura,-2.5333,140.7,300.81,91,100,1.1,ID,1715239911
461,farafangana,-22.8167,47.8333,298.88,71,29,5.49,MG,1715239911
462,barabai,-2.5833,115.3833,303.15,77,96,0.99,ID,1715239912
463,laguna,38.421,-121.4238,294.31,30,0,6.69,US,1715239839
464,bubaque,11.2833,-15.8333,299.32,73,90,3.32,GW,1715239912
465,mo i rana,66.3128,14.1428,278.33,88,100,2.24,NO,1715239912
466,tutoia,-2.7619,-42.2744,297.74,88,67,2.17,BR,1715239912
467,devonport,-41.1667,146.35,287.33,89,13,1.58,AU,1715239913
468,labrador city,52.9463,-66.9114,269.92,72,0,1.03,CA,1715239913
469,cambria,35.5641,-121.0808,287.52,58,0,1.95,US,1715239913
470,papao,-17.75,-149.55,298.97,77,65,7.97,PF,1715239913
471,north bend,43.4065,-124.2243,283.1,93,0,0.0,US,1715239914
472,lerwick,60.1545,-1.1494,283.2,93,100,5.0,GB,1715239914
473,uyuni,-20.4597,-66.825,279.56,36,0,2.05,BO,1715239914
474,cananeia,-25.0147,-47.9267,297.0,66,13,2.3,BR,1715239914
475,warrenton,-28.114,24.8475,297.69,22,1,5.12,ZA,1715239914
476,manicore,-5.8092,-61.3003,296.85,95,4,0.46,BR,1715239914
477,reggane,26.7158,0.1714,302.09,11,62,10.41,DZ,1715239915
478,beira,-19.8436,34.8389,299.42,56,36,2.4,MZ,1715239915
479,levuka,50.1834,-105.4011,281.99,73,84,2.43,CA,1715239915
480,sumqayit,40.5897,49.6686,294.19,55,91,4.26,AZ,1715239915
481,eldorado,-23.7869,-54.2836,295.05,96,67,2.51,BR,1715239915
482,naliya,23.2667,68.8333,307.53,45,0,6.54,IN,1715239916
483,pangody,65.85,74.4859,271.33,90,100,7.8,RU,1715239916
484,red hill,33.9996,-79.2581,297.07,1,100,3.14,US,1715239916
485,natal,-5.795,-35.2094,298.27,94,20,3.09,BR,1715239916
486,mejit,10.2753,170.8646,300.61,84,100,8.99,MH,1715239916
487,tukrah,32.5341,20.5791,296.92,41,0,4.19,LY,1715239916
488,paros,37.0833,25.15,294.91,63,20,7.2,GR,1715239917
489,shahr-e babak,30.1165,55.1186,294.53,10,0,7.23,IR,1715239917
490,quepos,9.4236,-84.1652,299.06,89,99,1.87,CR,1715239917
491,bengkulu,-3.8004,102.2655,303.33,67,14,3.33,ID,1715239917
492,katsuura,35.1333,140.3,287.1,71,88,5.04,JP,1715239918
493,pochep,52.9336,33.4464,278.22,34,15,4.35,RU,1715239918
494,minas de marcona,-15.2119,-75.1103,287.26,88,100,2.93,PE,1715239918
495,ushtobe,45.2514,77.9838,305.98,14,99,0.76,KZ,1715239918
496,chepo,9.1667,-79.1,299.25,93,75,1.51,PA,1715239918
497,puerto gaitan,4.3133,-72.0816,298.29,91,100,3.1,CO,1715239919
498,waddan,29.1614,16.139,295.01,45,0,6.19,LY,1715239919
499,ar rass,25.8694,43.4973,303.74,15,2,7.08,SA,1715239919
500,contamana,-7.3333,-75.0167,297.76,91,99,0.69,PE,1715239919
501,suntar,62.1444,117.6319,278.34,43,100,3.97,RU,1715239919
502,bahir dar,11.5936,37.3908,303.28,22,62,1.58,ET,1715239920
503,kavieng,-2.5744,150.7967,298.62,92,100,2.09,PG,1715239920
504,chandler,33.3062,-111.8412,295.87,14,0,4.63,US,1715239811
505,hammerfest,70.6634,23.6821,276.4,48,0,5.14,NO,1715239920
506,kayangel,8.0823,134.7173,302.19,74,91,4.95,PW,1715239920
507,cururupu,-1.8283,-44.8683,296.77,99,59,0.36,BR,1715239921
508,jwaneng,-24.6004,24.7303,296.76,24,0,6.56,BW,1715239921
509,ghanzi,-21.5667,21.7833,297.61,18,0,7.22,BW,1715239921
510,topolovgrad,42.0833,26.3333,286.0,90,100,3.05,BG,1715239921
511,kentville,45.0835,-64.4988,281.16,98,100,2.57,CA,1715239921
512,suva,-18.1416,178.4415,296.86,78,40,1.54,FJ,1715239922
513,fengxiang,47.5833,130.8333,291.0,15,0,6.87,CN,1715239922
514,rudsar,37.1376,50.288,293.14,80,97,1.98,IR,1715239922
515,khovd,48.0056,91.6419,292.34,23,3,2.81,MN,1715239922
516,mersa matruh,31.3525,27.2453,298.87,36,48,7.82,EG,1715239922
517,karratha,-20.7377,116.8463,302.36,31,1,6.04,AU,1715239678
518,trinidad,-14.8333,-64.9,296.54,94,6,1.07,BO,1715239923
519,cill airne,52.05,-9.5167,286.39,77,100,1.95,IE,1715239923
520,nova sintra,14.8667,-24.7167,297.08,75,55,10.15,CV,1715239923
521,male,4.1748,73.5089,306.12,75,75,4.12,MV,1715239923
522,ramadi,33.4226,43.3058,301.66,18,0,1.12,IQ,1715239923
523,sydney mines,46.2367,-60.2177,277.67,87,100,2.57,CA,1715239924
524,sorong,-0.8833,131.25,301.32,80,100,3.72,ID,1715239924
525,imbituba,-28.24,-48.6703,293.56,86,100,6.43,BR,1715239924
526,gorgan,36.8387,54.4348,293.13,73,75,4.12,IR,1715239924
527,at taj,24.2049,23.2857,308.59,9,0,9.92,LY,1715239924
528,san carlos sija,14.9833,-91.55,286.03,71,100,0.35,GT,1715239925
529,alice,27.7523,-98.0697,300.1,89,100,4.12,US,1715239925
530,troitsko-pechorsk,62.7084,56.1964,272.98,91,99,7.15,RU,1715239925
531,bardai,11.65,7.2333,304.71,42,33,5.4,NG,1715239925
532,guiuan,11.0333,125.7247,302.1,75,6,5.5,PH,1715239925
533,hotan,37.0997,79.9269,305.29,7,51,3.45,CN,1715239926
534,camiri,-20.05,-63.5167,290.19,85,100,1.83,BO,1715239926
535,galliano,29.4422,-90.2992,300.15,78,100,7.2,US,1715239926
536,betio village,1.358,172.9211,303.17,75,78,3.9,KI,1715239926
537,pajok,3.8651,32.4821,299.39,67,86,0.67,SS,1715239926
538,toma,12.7667,-2.8833,306.5,41,1,4.96,BF,1715239927
539,irece,-11.3042,-41.8558,292.06,92,8,6.31,BR,1715239927
540,pontevedra,42.431,-8.6444,288.65,62,100,1.72,ES,1715239927
541,sao jose da coroa grande,-8.8978,-35.1478,298.89,86,33,1.93,BR,1715239927
542,keflavik,64.0049,-22.5624,277.39,75,75,2.57,IS,1715239927
543,cadale,2.7603,46.3222,304.83,62,24,5.77,SO,1715239928
544,koyulhisar,40.3025,37.8311,290.44,36,66,1.36,TR,1715239928
545,panji,-7.7253,114.0995,303.11,69,100,3.83,ID,1715239928
546,juneau,58.3019,-134.4197,279.15,95,100,5.14,US,1715239905
547,zhezqazghan,47.7833,67.7667,299.47,38,20,8.0,KZ,1715239929
548,nouadhibou,20.931,-17.0347,290.14,100,75,4.63,MR,1715239929
549,auch,43.65,0.5833,290.01,82,0,0.89,FR,1715239929
550,pueblo nuevo,23.3833,-105.3833,284.79,34,0,3.26,MX,1715239929
551,moranbah,-22.0016,148.0466,296.64,59,100,6.78,AU,1715239929
552,baiti,13.745,-14.7482,299.8,50,8,3.74,SN,1715239930
553,kilindoni,-7.9139,39.6668,299.81,83,68,7.64,TZ,1715239930
554,galle,6.0367,80.217,301.73,73,100,1.41,LK,1715239932
555,jiaojiang,28.6803,121.4428,291.11,72,100,2.49,CN,1715239932
556,hanak,41.2336,42.8472,285.1,35,0,1.69,TR,1715239932
557,yulinshi,38.2906,109.7494,298.68,29,93,8.83,CN,1715239854
558,yaransk,57.3033,47.8861,273.84,64,100,7.9,RU,1715239932
559,neelankarai,12.9455,80.2575,308.19,63,40,4.12,IN,1715239933
560,klaksvik,62.2266,-6.589,280.66,69,43,4.48,FO,1715239933
561,dudinka,69.4058,86.1778,266.86,89,42,5.36,RU,1715239933
562,podporozh'ye,60.9112,34.1706,275.67,57,100,4.96,RU,1715239933
563,fuerte olimpo,-21.0415,-57.8738,299.67,59,98,1.18,PY,1715239933
564,ghadamis,30.1337,9.5007,292.79,44,36,3.08,LY,1715239933
565,bria,6.5423,21.9863,307.29,36,38,2.91,CF,1715239934
566,ola,59.5833,151.2833,276.56,82,35,2.2,RU,1715239934
567,byron bay,-28.65,153.6167,291.32,71,99,5.07,AU,1715239702
568,bridgewater,44.3835,-64.5155,280.99,94,100,7.72,CA,1715239934
569,callao,-12.0667,-77.15,292.99,88,100,1.03,PE,1715239934
570,borba,-4.3878,-59.5939,296.71,95,17,0.93,BR,1715239934
571,gallup,35.5281,-108.7426,281.06,23,100,2.06,US,1715239780
572,macusani,-14.0833,-70.4333,273.54,94,8,0.9,PE,1715239935
573,soio,-6.1349,12.3689,299.88,82,100,3.41,AO,1715239935
574,andkhoy,36.9529,65.1238,298.64,45,100,10.0,AF,1715239935
575,shibganj,24.6829,88.1598,308.62,32,100,2.76,BD,1715239936
576,rufino,-34.2683,-62.7126,278.22,48,0,1.97,AR,1715239936
577,wakkanai,45.4094,141.6739,283.14,57,75,8.23,JP,1715239936
578,volokonovka,50.4827,37.8563,280.7,30,1,3.81,RU,1715239936
579,novodvinsk,64.4165,40.8122,271.01,59,100,7.82,RU,1715239936
580,kosong,38.3788,128.4676,297.42,47,7,7.65,KR,1715239937
581,siwa oasis,29.2041,25.5195,305.08,9,0,7.37,EG,1715239937
582,tirodi,21.6833,79.7,313.6,17,18,3.1,IN,1715239937
583,aiquile,-18.2041,-65.1807,286.93,93,2,0.86,BO,1715239937
