City_ID,City,Lat,Lng,Max Temp,Humidity,Cloudiness,Wind Speed,Country,Date
0,kavaratti,10.5669,72.642,302.99,71,99,5.09,IN,1715319018
1,el calafate,-50.3408,-72.2768,273.45,88,95,0.96,AR,1715319018
2,anadyr,64.75,177.4833,269.43,68,75,2.0,RU,1715319018
3,watertown,42.3709,-71.1828,283.51,80,100,4.63,US,1715319018
4,papatowai,-46.5619,169.4708,280.65,84,100,4.59,NZ,1715319019
5,ancud,-41.8697,-73.8203,281.27,81,77,1.63,CL,1715319019
6,happy valley-goose bay,53.3168,-60.3315,274.32,80,75,2.57,CA,1715319019
7,tukrah,32.5341,20.5791,290.54,79,49,7.47,LY,1715319019
8,udachny,66.4167,112.4,267.29,72,100,5.03,RU,1715319019
9,warman,52.3168,-106.5679,284.87,46,40,3.09,CA,1715319020
10,yellowknife,62.456,-114.3525,281.16,69,20,4.12,CA,1715318936
11,port-aux-francais,-49.35,70.2167,280.19,91,100,18.76,TF,1715319020
12,sirte,31.2089,16.5887,291.99,69,48,10.27,LY,1715319020
13,waitangi,-43.9535,-176.5597,282.49,71,89,13.42,NZ,1715319020
14,al artawiyah,26.5053,45.3444,302.46,14,0,5.1,SA,1715319021
15,lebu,-37.6167,-73.65,281.16,83,23,1.2,CL,1715319021
16,holbeach,52.804,0.0144,284.83,91,20,2.06,GB,1715319021
17,puerto natales,-51.7236,-72.4875,271.94,95,53,0.6,CL,1715319021
18,atafu village,-8.5421,-172.5159,302.56,69,88,1.05,TK,1715319021
19,okhotsk,59.3833,143.3,273.61,94,100,6.41,RU,1715319021
20,port augusta,-32.5,137.7667,293.89,37,0,7.06,AU,1715319022
21,thompson,55.7435,-97.8558,281.24,87,75,2.06,CA,1715319022
22,hamilton,39.1834,-84.5333,286.89,90,100,4.12,US,1715319022
23,gubkinskiy,64.434,76.5026,274.71,100,100,4.33,RU,1715319022
24,blackmans bay,-43.0167,147.3167,287.44,88,95,0.89,AU,1715319023
25,hawaiian paradise park,19.5933,-154.9731,295.95,94,100,3.6,US,1715319023
26,fuglafjordur,62.244,-6.814,282.41,95,100,2.43,FO,1715319023
27,tazovsky,67.4667,78.7,273.12,90,100,9.34,RU,1715319023
28,bethel,41.3712,-73.414,285.31,84,100,4.12,US,1715319023
29,saipan,15.1355,145.701,305.54,62,40,5.66,MP,1715319024
30,whitehorse,60.7161,-135.0538,280.58,63,40,2.24,CA,1715318775
31,uturoa,-16.7333,-151.4333,300.95,73,15,4.74,PF,1715319024
32,puerto ayora,-0.7393,-90.3518,295.68,96,62,0.45,EC,1715319024
33,albany,42.6001,-73.9662,285.56,72,100,1.23,US,1715318914
34,guarapari,-20.6667,-40.4975,296.98,88,22,1.77,BR,1715319024
35,arteche,12.2645,125.4048,303.89,60,41,3.64,PH,1715319025
36,college,64.8569,-147.8028,281.33,77,75,3.09,US,1715318970
37,olonkinbyen,70.9221,-8.7187,270.84,76,56,6.67,SJ,1715319025
38,ferkessedougou,9.6,-5.2,298.32,81,49,1.96,CI,1715319025
39,sakleshpur,12.9667,75.7833,301.21,58,100,0.81,IN,1715319025
40,vorgashor,67.5833,63.95,270.82,74,100,7.55,RU,1715319025
41,ratnapura,6.6828,80.3992,300.49,92,96,1.08,LK,1715319026
42,broken hill,-31.95,141.4333,291.33,51,24,5.38,AU,1715319026
43,edinburgh of the seven seas,-37.0676,-12.3116,287.53,77,100,9.45,SH,1715319026
44,grytviken,-54.2811,-36.5092,273.49,89,100,1.33,GS,1715319026
45,kontcha,7.9667,12.2333,300.95,61,96,1.69,CM,1715319026
46,alofi,-19.0595,-169.9187,298.09,73,100,3.6,NU,1715319027
47,carnarvon,-24.8667,113.6333,300.47,49,21,4.68,AU,1715319027
48,avarua,-21.2078,-159.775,300.18,89,20,4.12,CK,1715319027
49,weatherford,32.7593,-97.7972,290.98,81,30,1.79,US,1715319027
50,ushuaia,-54.8,-68.3,275.96,65,20,7.72,AR,1715319027
51,iqaluit,63.7506,-68.5145,270.0,92,100,2.57,CA,1715319028
52,yaren,-0.5472,166.916,302.1,67,93,0.84,NR,1715319028
53,gadzhiyevo,69.2551,33.3362,273.34,85,100,6.8,RU,1715319028
54,magong,23.5654,119.5863,296.98,78,43,5.67,TW,1715319028
55,quelimane,-17.8786,36.8883,293.12,94,0,1.53,MZ,1715319029
56,ebon,4.582,168.6964,301.59,78,84,3.26,MH,1715319029
57,praia da vitoria,38.7333,-27.0667,288.57,94,0,1.89,PT,1715319029
58,ust-nera,64.5667,143.2,279.5,61,100,1.68,RU,1715319029
59,valdivia,-39.8142,-73.2459,279.2,99,93,0.64,CL,1715319029
60,invercargill,-46.4,168.35,282.05,79,100,2.24,NZ,1715319030
61,beau vallon,-20.4189,57.6953,299.94,65,40,6.69,MU,1715319030
62,iskateley,67.6803,53.1512,271.49,95,100,11.62,RU,1715319030
63,georgetown,5.4112,100.3354,306.12,62,20,2.57,MY,1715318843
64,bathsheba,13.2167,-59.5167,301.49,78,20,6.69,BB,1715319030
65,pacific grove,36.6177,-121.9166,288.28,86,0,0.89,US,1715319030
66,mejit,10.2753,170.8646,300.48,84,98,9.08,MH,1715319031
67,strezhevoy,60.7333,77.5889,280.91,92,100,7.6,RU,1715319031
68,hasaki,35.7333,140.8333,298.31,46,1,8.31,JP,1715319031
69,saint-philippe,-21.3585,55.7679,298.92,78,76,7.01,RE,1715319031
70,luderitz,-26.6481,15.1594,286.34,81,0,4.89,NA,1715319031
71,dakhla,23.6848,-15.958,291.44,86,100,7.23,EH,1715319031
72,srandakan,-7.9386,110.2506,302.84,73,30,7.6,ID,1715319032
73,anloga,5.7947,0.8973,301.93,79,100,4.53,GH,1715319032
74,talnakh,69.4865,88.3972,267.71,76,5,1.02,RU,1715319032
75,rongelap,11.1635,166.8941,300.32,79,69,7.97,MH,1715319032
76,kuching,1.55,110.3333,307.64,75,40,1.54,MY,1715319032
77,midvagur,62.0511,-7.1939,282.61,100,100,5.14,FO,1715319033
78,qaqortoq,60.7167,-46.0333,273.65,76,100,1.06,GL,1715319033
79,isafjordur,66.0755,-23.124,275.0,79,96,1.34,IS,1715319033
80,embi,48.8264,58.1442,284.11,34,29,1.81,KZ,1715319033
81,flying fish cove,-10.4217,105.6791,300.97,83,100,6.17,CX,1715319033
82,tucuma,-0.1833,-50.05,297.92,95,100,2.43,BR,1715319033
83,haverhill,42.7762,-71.0773,283.69,79,40,2.06,US,1715319034
84,adamstown,-25.066,-130.1015,295.48,81,84,3.75,PN,1715319034
85,khorugh,37.4897,71.553,286.84,35,100,0.33,TJ,1715319034
86,nazira,26.9167,94.7333,307.61,33,100,0.95,IN,1715319034
87,debre birhan,9.6833,39.5333,289.69,57,73,2.02,ET,1715319035
88,klyuchi,52.2667,79.1667,294.68,50,100,5.74,RU,1715319035
89,manta,-0.95,-80.7333,300.03,83,75,3.09,EC,1715319035
90,sabang,5.8933,95.3214,302.66,68,44,0.76,ID,1715319035
91,nemuro,43.3236,145.575,281.21,83,61,4.53,JP,1715319035
92,tolanaro,-25.0319,46.9987,296.19,88,20,6.17,MG,1715319035
93,port elizabeth,-33.918,25.5701,288.32,96,75,3.6,ZA,1715319036
94,tura,25.5198,90.2201,302.79,47,66,2.18,IN,1715319036
95,kargopol',61.5071,38.9456,272.06,81,100,5.51,RU,1715319036
96,port douglas,-16.4833,145.4667,297.88,82,87,6.54,AU,1715319036
97,hithadhoo,-0.6,73.0833,301.79,79,25,3.82,MV,1715319036
98,tenno,39.9,139.9667,291.71,78,62,5.21,JP,1715319037
99,stanley,54.868,-1.6985,284.16,92,0,2.06,GB,1715319037
100,naxos,37.1056,25.3764,293.87,79,100,6.71,GR,1715319037
101,naze,28.3667,129.4833,296.66,54,100,3.94,JP,1715319037
102,remire-montjoly,4.9167,-52.2667,298.17,100,100,0.0,GF,1715319037
103,igrim,63.1906,64.4162,276.13,63,7,5.67,RU,1715319038
104,qamdo,31.1667,97.2333,282.72,46,94,4.35,CN,1715319038
105,bredasdorp,-34.5322,20.0403,284.49,60,0,3.48,ZA,1715319038
106,sayanogorsk,53.0875,91.3997,295.15,37,98,2.05,RU,1715319038
107,heber city,40.5069,-111.4132,281.11,90,77,2.12,US,1715319039
108,haiku-pauwela,20.9219,-156.3051,294.94,91,75,6.17,US,1715319039
109,sibiti,-3.6819,13.3499,295.43,98,100,0.25,CG,1715319039
110,duong dong,10.2167,103.9667,306.15,66,40,6.17,VN,1715319039
111,jamestown,42.097,-79.2353,283.92,100,100,3.09,US,1715318898
112,san luis de la loma,17.2706,-100.8939,297.94,76,100,0.65,MX,1715319040
113,nova sintra,14.8667,-24.7167,296.74,77,34,10.32,CV,1715319040
114,cestos city,5.46,-9.5828,300.09,86,76,0.69,LR,1715319040
115,hermanus,-34.4187,19.2345,286.91,72,1,6.41,ZA,1715319040
116,mount isa,-20.7333,139.5,301.02,51,75,5.14,AU,1715319040
117,zharkent,44.1628,80.0,304.9,8,0,5.76,KZ,1715319040
118,macau,22.2006,113.5461,300.04,73,40,6.17,MO,1715319041
119,west island,-12.1568,96.8225,302.14,70,100,8.23,CC,1715319041
120,hansot,21.5833,72.8,307.01,42,0,5.78,IN,1715319041
121,kas,36.2018,29.6377,298.47,28,100,7.21,TR,1715319041
122,turkmenbasy,40.0222,52.9552,295.58,37,0,8.23,TM,1715319041
123,reno,39.5296,-119.8138,288.48,41,0,4.02,US,1715319042
124,mogocha,53.7333,119.7667,285.95,50,100,5.55,RU,1715319042
125,abepura,-2.6333,140.5833,296.6,100,75,0.51,ID,1715319042
126,st. john's,47.5649,-52.7093,276.08,93,75,1.34,CA,1715319042
127,konstantinovka,49.6167,127.9833,292.9,21,96,5.08,RU,1715319042
128,gargalianoi,37.0667,21.6333,288.9,70,100,5.65,GR,1715319042
129,queenstown,-31.8976,26.8753,293.57,33,26,5.09,ZA,1715319043
130,alice springs,-23.7,133.8833,295.9,40,40,6.69,AU,1715319021
131,saint croix,17.7397,-64.7388,298.68,89,3,1.34,VI,1715319043
132,ola,59.5833,151.2833,277.12,82,35,3.4,RU,1715319043
133,wailua homesteads,22.0669,-159.378,298.39,85,40,3.6,US,1715319043
134,vokhtoga,58.8147,41.0461,277.25,48,100,6.42,RU,1715319043
135,don luan,11.5333,106.9167,308.67,40,100,1.34,VN,1715319044
136,trairi,-3.2778,-39.2689,297.45,95,100,2.89,BR,1715319044
137,cascais,38.6979,-9.4215,291.77,87,77,2.68,PT,1715319044
138,hadibu,12.65,54.0333,303.28,62,62,0.13,YE,1715319044
139,bilibino,68.0546,166.4372,274.23,86,96,0.98,RU,1715319044
140,mazeikiai,56.3167,22.3333,281.99,98,100,4.71,LT,1715319045
141,anton lizardo,19.05,-95.9833,300.27,65,80,1.93,MX,1715319045
142,port mathurin,-19.6833,63.4167,298.59,74,100,10.61,MU,1715319045
143,centralia,46.7162,-122.9543,290.12,65,0,0.0,US,1715318953
144,odiongan,12.4017,121.9919,303.82,65,87,3.23,PH,1715319045
145,kapa'a,22.0752,-159.319,299.14,85,40,3.6,US,1715319045
146,lata,40.1629,-8.3327,285.97,68,78,0.79,PT,1715319046
147,fale old settlement,-9.3852,-171.2468,302.42,71,100,1.6,TK,1715319046
148,kurkino,53.4257,38.6582,279.71,50,38,7.03,RU,1715319046
149,kayangel,8.0823,134.7173,300.97,81,92,2.78,PW,1715319046
150,katiola,8.1333,-5.1,297.5,92,53,2.33,CI,1715319046
151,richards bay,-28.783,32.0377,294.48,60,0,4.13,ZA,1715319047
152,grajau,-5.8194,-46.1386,298.0,76,100,1.0,BR,1715319047
153,barra do corda,-5.5,-45.25,298.17,77,93,0.79,BR,1715319047
154,embrun,44.5639,6.4953,282.74,70,0,1.78,FR,1715319047
155,sibolga,1.7427,98.7792,303.19,73,99,2.9,ID,1715319047
156,tomsk,58.5,82.5,288.31,50,100,5.08,RU,1715318784
157,lihue,21.9789,-159.3672,298.73,82,40,3.6,US,1715319048
158,plettenberg bay,-34.0527,23.3716,287.06,80,0,1.21,ZA,1715319048
159,monetnyy,57.0472,60.8794,276.83,39,84,6.45,RU,1715319048
160,talara,-4.5772,-81.2719,294.36,79,98,7.32,PE,1715319048
161,anna regina,7.2644,-58.5077,299.38,87,100,5.15,GY,1715319048
162,isangel,-19.55,169.2667,295.21,88,75,3.09,VU,1715319049
163,ribeira grande,38.5167,-28.7,290.8,91,29,4.47,PT,1715319049
164,villanueva,15.3167,-88.0,302.7,79,40,2.06,HN,1715319049
165,lom sak,16.7798,101.2422,308.09,49,20,1.54,TH,1715319049
166,jam sahib,26.2958,68.6292,312.16,13,0,7.11,PK,1715319049
167,ponta delgada,37.7333,-25.6667,289.55,82,20,4.12,PT,1715319050
168,calvinia,-31.4707,19.776,283.25,50,0,1.96,ZA,1715319050
169,keflavik,64.0049,-22.5624,280.39,65,100,3.6,IS,1715319050
170,puerto deseado,-47.7503,-65.8938,279.04,80,100,5.64,AR,1715319050
171,fayetteville,35.0527,-78.8784,295.44,84,0,5.66,US,1715319050
172,huntsville,34.7304,-86.5861,294.16,92,75,2.06,US,1715319051
173,asau,46.4333,26.4,281.66,63,51,2.14,RO,1715319051
174,new norfolk,-42.7826,147.0587,288.1,86,100,1.13,AU,1715319042
175,rio grande,-32.035,-52.0986,287.58,74,89,3.01,BR,1715319051
176,san patricio,28.017,-97.5169,301.12,88,0,2.7,US,1715319051
177,crane,31.3974,-102.3501,292.14,75,19,9.0,US,1715319051
178,afaahiti,-17.75,-149.2833,300.08,80,23,3.39,PF,1715319052
179,ilulissat,69.2167,-51.1,267.16,58,59,0.0,GL,1715319052
180,kete krachi,7.7939,-0.0498,300.43,80,100,3.61,GH,1715319052
181,island harbour,50.724,-1.2758,284.22,76,100,2.82,GB,1715319052
182,inyonga,-6.7167,32.0667,293.31,80,98,2.91,TZ,1715319052
183,kodiak,57.79,-152.4072,276.88,70,20,3.6,US,1715318941
184,tortoli,39.9256,9.6572,292.67,52,0,4.12,IT,1715319053
185,vila velha,-20.3297,-40.2925,297.12,97,0,1.34,BR,1715319053
186,hue,16.4667,107.6,306.21,62,20,4.12,VN,1715319053
187,alta,69.9689,23.2717,272.74,93,100,3.09,NO,1715319053
188,susuman,62.7833,148.1667,279.25,47,100,3.13,RU,1715319053
189,lerwick,60.1545,-1.1494,282.15,98,100,5.6,GB,1715319054
190,paso de los libres,-29.7131,-57.0899,286.39,75,100,3.53,AR,1715319054
191,tayoltita,24.0833,-105.9333,298.16,21,0,2.82,MX,1715319054
192,dubuque,42.4833,-90.8668,286.2,82,100,0.0,US,1715319054
193,verkhniye kigi,55.4083,58.6044,276.92,54,46,9.24,RU,1715319054
194,margaret river,-33.95,115.0667,293.47,82,47,10.48,AU,1715319054
195,bairnsdale,-37.8333,147.6167,291.51,81,77,2.24,AU,1715319055
196,pyhajarvi,67.0701,27.2176,272.29,96,98,3.01,FI,1715319055
197,cambria,35.5641,-121.0808,288.84,93,9,1.34,US,1715319055
198,berdigestyakh,62.0989,126.6992,275.98,44,100,3.39,RU,1715319055
199,vila franca do campo,37.7167,-25.4333,289.38,88,18,0.35,PT,1715319055
200,kingston,17.997,-76.7936,301.68,74,20,2.57,JM,1715319056
201,sitka,57.0531,-135.33,281.09,93,100,4.12,US,1715319056
202,zeya,53.75,127.2667,287.86,29,93,1.54,RU,1715319056
203,petropavlovsk-kamchatsky,53.0452,158.6483,279.48,66,75,8.0,RU,1715319056
204,eirunepe,-6.6603,-69.8736,296.34,98,65,0.47,BR,1715319056
205,atlantic city,39.3643,-74.4229,286.58,88,100,7.15,US,1715319056
206,lemvig,56.5486,8.3102,282.7,96,82,6.21,DK,1715319057
207,benguela,-12.5763,13.4055,299.4,80,19,1.36,AO,1715319057
208,suksun,57.1431,57.3949,275.99,48,66,9.73,RU,1715319057
209,ambon,-3.6954,128.1814,304.23,74,40,3.09,ID,1715319057
210,camana,-16.6228,-72.7111,291.59,84,75,3.26,PE,1715319057
211,candelaria,13.9311,121.4233,305.49,54,76,3.05,PH,1715319058
212,arboga,59.3939,15.8388,281.56,53,70,3.9,SE,1715319058
213,ust'-uda,54.1742,103.0304,284.75,35,80,4.19,RU,1715319058
214,yarkovo,57.4028,67.0786,283.04,36,12,2.93,RU,1715319058
215,taguatinga,-12.3857,-46.5711,293.0,44,8,2.61,BR,1715319058
216,porbandar,21.6422,69.6093,305.14,62,40,4.63,IN,1715319059
217,mirnyy,62.5353,113.9611,272.72,59,100,3.58,RU,1715319059
218,newman,37.3138,-121.0208,295.53,58,0,3.13,US,1715319059
219,mushabani,22.5167,86.45,302.21,35,19,1.78,IN,1715319059
220,coquimbo,-29.9533,-71.3436,286.0,87,100,2.06,CL,1715319059
221,port saint john's,-31.6229,29.5448,295.87,45,10,3.36,ZA,1715319060
222,holualoa,19.6228,-155.9522,297.06,90,40,2.57,US,1715319060
223,hotan,37.0997,79.9269,306.02,8,18,8.95,CN,1715319060
224,anaconda,46.1285,-112.9423,279.7,97,44,1.85,US,1715319060
225,collingwood,44.4834,-80.2164,283.51,78,100,0.55,CA,1715319060
226,las tablas,7.7667,-80.2833,300.47,99,100,2.07,PA,1715319060
227,kourou,5.1552,-52.6478,298.18,93,100,2.19,GF,1715319061
228,qandala,11.472,49.8728,305.43,61,26,1.81,SO,1715319061
229,launceston,-41.45,147.1667,290.82,77,100,3.6,AU,1715318849
230,camacupa,-12.0167,17.4833,287.67,64,32,1.6,AO,1715319061
231,fortaleza,-3.7227,-38.5247,302.22,89,75,4.63,BR,1715319062
232,buala,-8.145,159.5921,298.75,93,100,2.76,SB,1715319062
233,cody,44.5263,-109.0565,281.59,74,100,1.54,US,1715319062
234,makokou,0.5738,12.8642,296.25,97,99,0.97,GA,1715319062
235,taulaga,-11.0553,-171.0883,302.49,73,100,3.6,AS,1715319062
236,kearney,40.6995,-99.0815,285.1,78,0,3.09,US,1715319062
237,rundu,-17.9333,19.7667,288.37,35,0,2.34,NA,1715319063
238,iranshahr,27.2025,60.6848,304.34,20,0,2.06,IR,1715319063
239,longyearbyen,78.2186,15.6401,273.06,69,75,7.2,SJ,1715319063
240,la ferte-bernard,48.1863,0.6536,283.94,93,45,3.81,FR,1715319063
241,trat,12.5,102.5,306.26,47,72,1.64,TH,1715319063
242,hallsberg,59.0657,15.1117,281.31,68,0,8.23,SE,1715319064
243,northam,51.0333,-4.2167,285.03,93,100,2.57,GB,1715319064
244,mount pearl,47.5166,-52.7813,275.62,93,75,1.03,CA,1715319064
245,posto fiscal rolim de moura,-13.0833,-62.2667,296.69,84,23,0.09,BR,1715319064
246,colonia,50.9333,6.95,285.47,90,0,0.51,DE,1715319064
247,port lincoln,-34.7333,135.8667,289.76,66,0,4.23,AU,1715319021
248,chhabra,24.6667,76.8333,313.46,14,0,6.51,IN,1715319065
249,polyarnyy,69.1989,33.4478,273.19,85,100,6.96,RU,1715319065
250,chonchi,-42.6128,-73.8092,277.1,91,57,0.48,CL,1715319065
251,port alfred,-33.5906,26.891,288.81,99,23,1.79,ZA,1715319065
252,jertih,5.7336,102.4897,310.4,56,100,4.68,MY,1715319065
253,lompoc,34.6391,-120.4579,287.55,88,0,2.57,US,1715319065
254,cabo san lucas,22.8909,-109.9124,296.82,62,4,4.56,MX,1715318817
255,codrington,-38.2667,141.9667,290.26,72,77,2.98,AU,1715319066
256,tucurui,-3.7661,-49.6725,296.64,96,87,1.15,BR,1715319066
257,vorkuta,67.5,64.0,270.99,74,100,9.39,RU,1715319066
258,amga,60.8953,131.9608,278.96,37,100,3.12,RU,1715319066
259,nadym,65.5333,72.5167,274.8,100,100,7.16,RU,1715319066
260,ankang,32.68,109.0172,301.24,54,60,1.74,CN,1715319067
261,tiksi,71.6872,128.8694,271.77,91,100,3.39,RU,1715319067
262,villamontes,-21.25,-63.5,284.78,91,81,0.41,BO,1715319067
263,trincomalee,8.5711,81.2335,301.62,77,85,4.23,LK,1715319067
264,weston-super-mare,51.346,-2.9766,286.79,86,100,0.51,GB,1715319067
265,santana,-0.0583,-51.1817,300.25,89,75,1.54,BR,1715319068
266,brookings,44.3114,-96.7984,284.88,82,0,0.0,US,1715319068
267,shangmei,27.7428,111.2956,296.72,73,100,2.5,CN,1715319068
268,badger,64.8,-147.5333,281.29,80,100,3.09,US,1715319068
269,gorno-altaysk,51.9561,85.955,296.21,37,100,2.68,RU,1715319068
270,kathmandu,27.7167,85.3167,294.27,68,75,1.03,NP,1715319065
271,oum hadjer,13.2954,19.6966,307.14,12,94,5.15,TD,1715319069
272,soma,39.1855,27.6094,286.68,79,89,5.14,TR,1715319069
273,el nido,11.1858,119.3956,304.88,64,22,4.95,PH,1715319069
274,zaranj,30.9667,61.8833,298.13,27,0,11.2,AF,1715319070
275,eraan,9.0629,117.7016,307.04,53,57,2.66,PH,1715319070
276,kristiansund,63.1115,7.732,279.51,75,20,1.03,NO,1715319070
277,sao joao da barra,-21.6403,-41.0511,296.95,89,19,2.21,BR,1715319070
278,tchibanga,-2.85,11.0333,296.15,94,97,0.46,GA,1715319070
279,severo-yeniseyskiy,60.3725,93.0408,279.03,80,100,2.68,RU,1715319071
280,kerikeri,-35.2268,173.9474,286.99,65,1,3.13,NZ,1715319071
281,trujillo,-8.116,-79.03,290.13,94,75,5.14,PE,1715319071
282,dudinka,69.4058,86.1778,267.97,88,27,4.47,RU,1715319071
283,mata-utu,-13.2816,-176.1745,301.31,76,55,6.74,WF,1715319071
284,radomyshl,50.4961,29.2291,285.35,64,32,3.14,UA,1715319071
285,itamaraca,-7.7478,-34.8256,298.18,80,7,4.19,BR,1715319072
286,giyani,-23.3025,30.7187,292.52,39,0,1.98,ZA,1715319072
287,belomorsk,64.5232,34.7668,273.78,61,11,5.27,RU,1715319072
288,ixmiquilpan,20.4833,-99.2333,294.58,54,97,1.57,MX,1715319072
289,utrik,11.2278,169.8474,300.34,84,89,8.82,MH,1715319072
290,tazacorte,28.629,-17.9293,292.69,53,0,5.66,ES,1715319073
291,kittila,67.6647,24.8936,273.49,100,100,4.12,FI,1715319073
292,yuanping,38.7153,112.7575,295.85,53,88,1.37,CN,1715319073
293,bel ombre,-4.6167,55.4167,304.06,70,20,4.12,SC,1715319073
294,mikhaylovsk,45.1283,42.0256,283.27,57,0,0.0,RU,1715319073
295,ixtapa,20.7,-105.2,298.28,78,0,0.0,MX,1715319073
296,dolores,-36.3132,-57.6792,279.98,71,7,2.74,AR,1715319074
297,butembo,0.15,29.2833,290.85,94,96,1.34,CD,1715319074
298,rantauprapat,2.1,99.8333,303.54,74,100,1.55,ID,1715319074
299,spencer,43.1414,-95.1444,285.21,66,0,1.54,US,1715318951
300,nuku'alofa,-21.1333,-175.2,296.34,78,40,3.09,TO,1715319074
301,ende,-8.8432,121.6623,300.75,75,26,2.41,ID,1715319075
302,oriximina,-1.7656,-55.8661,297.74,94,98,1.16,BR,1715319075
303,puerto aysen,-45.4,-72.7,276.33,99,99,0.83,CL,1715319075
304,argo,37.6333,22.7333,289.3,79,100,5.5,GR,1715319075
305,lazaro cardenas,17.9583,-102.2,295.97,83,65,1.23,MX,1715319075
306,selfoss,63.9331,-20.9971,280.4,55,100,3.62,IS,1715319076
307,kailua-kona,19.6406,-155.9956,299.13,89,40,2.57,US,1715318897
308,espoo,60.25,24.6667,280.41,92,75,5.14,FI,1715318958
309,ust'-kulom,61.6864,53.6902,273.06,73,100,4.2,RU,1715319076
310,sidrolandia,-20.9319,-54.9614,294.87,67,1,1.32,BR,1715319076
311,poronaysk,49.2167,143.1167,284.78,52,93,3.97,RU,1715319076
312,guerrero negro,27.9769,-114.0611,288.66,83,41,6.03,MX,1715319077
313,rehoboth,-23.3167,17.0833,293.31,37,11,2.4,NA,1715319077
314,as samawah,31.332,45.2944,302.0,22,1,1.53,IQ,1715319077
315,tabas,33.5959,56.9244,294.99,36,0,4.55,IR,1715319077
316,bay city,43.5945,-83.8889,281.71,73,0,3.09,US,1715319077
317,makuyuni,-4.7333,38.1,297.49,76,75,3.6,TZ,1715319077
318,portland,45.5234,-122.6762,292.47,63,0,0.45,US,1715319024
319,al kharijah,25.4514,30.5464,304.82,7,16,1.3,EG,1715319078
320,jayapura,-2.5333,140.7,296.81,93,100,3.25,ID,1715319078
321,nuuk,64.1835,-51.7216,272.49,93,100,5.14,GL,1715319078
322,beni,0.5,29.4667,292.24,96,98,1.26,CD,1715319078
323,san julian,21.0167,-102.1667,296.32,17,80,2.09,MX,1715319079
324,bardsir,29.9227,56.5743,289.44,27,0,2.08,IR,1715319079
325,punta arenas,-53.15,-70.9167,272.21,93,40,3.09,CL,1715319079
326,al abyar,32.19,20.5965,289.3,75,26,8.09,LY,1715319079
327,poxoreo,-15.8372,-54.3892,292.77,65,1,1.62,BR,1715319080
328,harper,4.375,-7.7169,300.18,85,90,2.05,LR,1715319080
329,antonio enes,-16.2325,39.9086,299.36,70,4,2.54,MZ,1715319080
330,taltal,-25.4,-70.4833,288.13,85,100,2.12,CL,1715319080
331,prince albert,53.2001,-105.7677,282.12,53,20,0.0,CA,1715319080
332,grand falls-windsor,48.9332,-55.6649,276.21,90,100,0.89,CA,1715319081
333,aykhal,66.0,111.5,267.21,78,100,5.67,RU,1715319081
334,pisco,-13.7,-76.2167,292.18,88,21,2.06,PE,1715319081
335,muroran,42.3172,140.9881,285.33,60,77,5.13,JP,1715319081
336,tshikapa,-6.4167,20.8,298.41,71,89,0.85,CD,1715319081
337,masterton,-40.9597,175.6575,283.09,63,74,3.8,NZ,1715319082
338,howrah,22.5892,88.3103,301.15,74,75,1.54,IN,1715319082
339,kristinestad,62.2743,21.376,278.76,70,42,7.69,FI,1715319082
340,palkonda,18.6,83.75,310.09,37,26,3.53,IN,1715319082
341,abnub,27.2696,31.1511,299.27,7,0,3.11,EG,1715319082
342,loango,-4.6719,11.8312,298.96,100,75,1.54,CG,1715319082
343,alto araguaia,-17.3147,-53.2153,291.35,66,4,0.99,BR,1715319083
344,zunyi,27.6867,106.9072,294.74,83,100,2.84,CN,1715319083
345,nagqu,31.5,92.0,280.46,18,100,5.54,CN,1715319083
346,azna,33.6095,48.9307,290.57,37,2,0.69,IR,1715319083
347,berrotaran,-32.451,-64.3887,277.83,56,74,2.13,AR,1715319083
348,mitha tiwana,32.2486,72.1108,313.2,19,54,5.88,PK,1715319084
349,nova vicosa,-17.8919,-39.3719,297.52,90,8,1.95,BR,1715319084
350,touros,-5.1989,-35.4608,297.47,93,86,4.18,BR,1715319084
351,gondar,12.6,37.4667,294.53,40,99,2.28,ET,1715319084
352,wabrzezno,53.2799,18.9477,285.14,77,100,4.5,PL,1715319084
353,puerto baquerizo moreno,-0.9,-89.6,295.97,88,76,2.98,EC,1715319085
354,namibe,-15.1961,12.1522,295.56,73,13,3.13,AO,1715319085
355,horta,38.5333,-28.6333,290.38,91,40,4.47,PT,1715319085
356,divnomorskoye,44.5011,38.1353,286.58,64,83,6.8,RU,1715319085
357,kill devil hills,36.0307,-75.676,296.47,83,0,4.12,US,1715318833
358,mawlaik,23.6333,94.4167,310.18,28,100,0.67,MM,1715319085
359,gorontalo,0.5412,123.0595,301.91,88,52,0.94,ID,1715319086
360,maceio,-9.6658,-35.7353,297.84,88,0,1.54,BR,1715319086
361,bokhan,53.153,103.7714,282.07,50,98,6.94,RU,1715319086
362,thinadhoo,0.5333,72.9333,301.93,76,100,6.6,MV,1715319086
363,huayin,34.5675,110.0921,302.95,40,31,2.9,CN,1715319086
364,yeraliyev,43.2,51.65,292.05,40,22,4.92,KZ,1715319087
365,lahaina,20.8783,-156.6825,296.38,95,27,2.58,US,1715319004
366,dryden,49.7833,-92.7503,283.31,43,0,3.6,CA,1715319087
367,san andres,12.5847,-81.7006,302.16,84,20,3.09,CO,1715319087
368,scarborough,54.2797,-0.4044,286.57,88,100,2.07,GB,1715319073
369,egilsstadir,65.2653,-14.3948,276.1,81,75,0.0,IS,1715319088
370,arac,41.2422,33.3277,289.32,68,100,2.56,TR,1715319088
371,bargaal,11.2864,51.0773,303.87,68,48,3.58,SO,1715319088
372,spas-demensk,54.4122,34.0226,277.72,77,99,3.47,RU,1715319088
373,acarau,-2.8856,-40.12,298.34,91,100,3.32,BR,1715318924
374,uray,60.1247,64.7758,276.97,52,3,6.26,RU,1715319089
375,tambacounda,13.7539,-13.7586,301.12,66,19,3.73,SN,1715319089
376,arno,60.1167,18.6333,276.92,62,45,8.01,SE,1715319089
377,godda,24.8333,87.2167,305.81,42,25,3.14,IN,1715319089
378,conduaga,8.862,117.4893,306.08,56,51,3.45,PH,1715319089
379,myeik,12.4333,98.6,306.56,54,77,2.79,MM,1715319090
380,neiafu,-18.65,-173.9833,298.53,73,20,4.12,TO,1715319090
381,tsiombe,-25.3,45.4833,298.36,57,0,3.41,MG,1715319090
382,nepomuceno,-21.2358,-45.2358,288.61,90,2,1.62,BR,1715319090
383,faya-largeau,17.9257,19.1043,306.78,12,72,3.22,TD,1715319091
384,raduzhny,62.0961,77.475,276.48,94,100,6.95,RU,1715319091
385,buka,40.8108,69.1986,296.3,57,100,2.38,UZ,1715319091
386,zuenoula,7.4292,-6.0431,297.32,94,97,1.62,CI,1715319091
387,wucheng,29.6008,118.175,300.64,57,99,1.89,CN,1715319091
388,kondopoga,62.2057,34.2614,277.98,53,11,4.3,RU,1715319091
389,bubaque,11.2833,-15.8333,300.15,80,98,4.57,GW,1715319092
390,quellon,-43.1167,-73.6167,278.73,87,22,2.19,CL,1715319092
391,walvis bay,-22.9575,14.5053,287.68,88,0,1.54,NA,1715319092
392,puerto penasco,31.3167,-113.5333,295.73,60,36,1.16,MX,1715319092
393,box elder,41.5005,-112.8764,284.54,60,7,4.39,US,1715319092
394,nema,57.5067,50.5011,273.93,81,100,7.4,RU,1715319093
395,port moresby,-9.4431,147.1797,302.83,70,75,5.14,PG,1715318959
396,rayachoti,14.05,78.75,307.21,42,23,3.77,IN,1715319093
397,arraial do cabo,-22.9661,-42.0278,296.85,94,20,6.99,BR,1715319093
398,puerto ayacucho,5.6639,-67.6236,297.97,95,100,0.29,VE,1715319093
399,siwa oasis,29.2041,25.5195,296.38,37,96,7.33,EG,1715319093
400,changuinola,9.4333,-82.5167,299.23,91,92,0.89,PA,1715319094
401,tonosho,34.4833,134.1833,297.5,54,0,3.41,JP,1715319094
402,mosjoen,65.836,13.1908,277.44,81,40,2.68,NO,1715319094
403,santa terezinha,-29.9002,-50.0904,290.33,70,97,3.68,BR,1715319094
404,tamanrasset,22.785,5.5228,292.1,11,0,2.06,DZ,1715319095
405,kodinsk,58.6881,99.1844,282.28,39,99,1.64,RU,1715319095
406,tugulym,57.0591,64.6425,280.19,76,82,3.3,RU,1715319095
407,sipalay,9.75,122.5,303.39,63,40,3.86,PH,1715319095
408,tomatlan,19.9333,-105.25,293.08,99,3,1.57,MX,1715319095
409,divnogorsk,55.9594,92.3619,289.42,29,100,2.8,RU,1715319096
410,bethanie,-26.4833,17.15,294.37,31,2,2.76,NA,1715319096
411,tegueste,28.5167,-16.3167,293.52,92,75,7.72,ES,1715319096
412,mitu,1.1983,-70.1733,296.03,100,100,1.53,CO,1715319096
413,zuyevka,58.405,51.1335,273.41,83,100,7.3,RU,1715319096
414,ghat,24.9647,10.1728,293.84,25,0,5.03,LY,1715319097
415,la ronge,55.1001,-105.2842,285.29,35,20,2.57,CA,1715319097
416,callao,-12.0667,-77.15,293.55,82,0,3.09,PE,1715319097
417,vadso,70.0744,29.7487,272.64,74,75,3.6,NO,1715319097
418,komsomol'skiy,43.9783,46.6985,289.73,43,99,6.05,RU,1715319097
419,saurimo,-9.6608,20.3916,292.06,61,93,2.68,AO,1715319098
420,naracoorte,-36.9579,140.7383,291.05,55,48,3.04,AU,1715319098
421,beytussebap,37.5694,43.1681,285.49,51,47,2.38,TR,1715319098
422,llallagua,-18.4167,-66.6333,280.99,54,41,1.11,BO,1715319098
423,priozersk,61.0393,30.1291,280.98,81,98,3.8,RU,1715319098
424,loreto,22.2667,-101.9667,296.77,22,62,4.06,MX,1715319099
425,bengkulu,-3.8004,102.2655,303.43,67,42,3.73,ID,1715319099
426,amqui,48.4638,-67.4313,273.95,85,57,1.13,CA,1715319099
427,al ghayzah,16.2079,52.176,305.14,60,25,1.83,YE,1715319099
428,dunhua,43.3725,128.2425,289.28,63,100,4.43,CN,1715319100
429,arkhangel'sk,64.5401,40.5433,272.21,86,100,4.0,RU,1715319100
430,chernomorskoye,45.5039,32.6997,287.18,59,10,7.2,UA,1715319100
431,lamballe,48.4676,-2.5144,284.21,91,97,2.28,FR,1715319100
432,zrenjanin,45.3836,20.3819,287.58,74,100,3.64,RS,1715319101
433,mzimba,-11.9,33.6,292.56,74,7,5.44,MW,1715319101
434,port-vila,-17.7338,168.3219,297.93,61,40,4.63,VU,1715319102
435,at taraf,25.3628,49.725,302.45,13,3,6.43,SA,1715319102
436,sisimiut,66.9395,-53.6735,267.17,78,8,3.28,GL,1715319103
437,constantia,44.1833,28.65,287.53,69,26,7.5,RO,1715319103
438,mahina,-17.5065,-149.489,301.02,74,0,2.57,PF,1715319103
439,pago pago,-14.2781,-170.7025,300.7,83,75,1.03,AS,1715319103
440,at taj,24.2049,23.2857,300.87,13,7,4.87,LY,1715319104
441,prado,-17.3411,-39.2208,297.22,89,9,0.2,BR,1715319104
442,kapuskasing,49.4169,-82.4331,276.2,75,0,1.03,CA,1715319104
443,hanover,52.3705,9.7332,287.03,88,0,1.03,DE,1715319104
444,slavutych,51.5196,30.7343,284.37,44,100,2.68,UA,1715319105
445,el granada,37.5027,-122.4694,292.06,64,0,2.57,US,1715319105
446,inarajan village,13.2736,144.7484,305.69,84,68,7.01,GU,1715319105
447,high river,50.5834,-113.8687,287.21,55,46,2.32,CA,1715319105
448,wuyang,31.9925,116.2472,303.34,33,1,2.2,CN,1715319106
449,coron,11.9986,120.2043,305.92,55,21,4.44,PH,1715319106
450,rabaul,-4.1967,152.1721,301.91,72,42,1.55,PG,1715319106
451,andratx,39.5755,2.4202,287.94,59,2,1.21,ES,1715319106
452,hami,42.8,93.45,299.81,15,0,0.5,CN,1715319107
453,taunggyi,20.7833,97.0333,304.04,29,25,3.85,MM,1715319107
454,birao,10.2849,22.7882,302.95,10,98,3.82,CF,1715319107
455,cannonvale,-20.2833,148.7,296.81,77,100,6.77,AU,1715319107
456,ulladulla,-35.35,150.4667,289.61,93,99,4.0,AU,1715319108
457,hilo,19.7297,-155.09,296.64,95,100,3.6,US,1715319108
458,totness,5.8833,-56.3167,298.27,94,100,5.79,SR,1715319108
459,tindouf,27.6711,-8.1474,300.4,19,0,2.06,DZ,1715319108
460,harstad,68.799,16.5293,276.81,97,100,8.94,NO,1715319109
461,jodhpur,26.2867,73.03,311.62,21,1,7.3,IN,1715319109
462,east london,-33.0153,27.9116,291.67,94,75,3.6,ZA,1715319109
463,along,28.1667,94.7667,302.72,35,98,1.02,IN,1715319109
464,borogontsy,62.6683,131.1683,277.24,44,100,2.85,RU,1715319110
465,port hedland,-20.3167,118.5667,304.18,40,67,7.72,AU,1715319110
466,garachico,28.7781,-17.7646,291.21,68,0,5.66,ES,1715319110
467,piquete,-22.6136,-45.1761,292.08,95,5,0.61,BR,1715319110
468,selkirk,50.1436,-96.8845,290.19,64,60,0.45,CA,1715319111
469,chateaudun,48.0833,1.3333,284.79,92,37,3.48,FR,1715319111
470,mili,6.0815,171.735,301.43,83,85,6.55,MH,1715319111
471,filadelfia,39.9523,-75.1638,287.93,87,100,4.63,US,1715319008
472,la sarre,48.8002,-79.1996,276.84,68,7,2.8,CA,1715319112
473,ar ruways,24.1103,52.7306,302.1,38,67,7.96,AE,1715319112
474,road town,18.4167,-64.6167,299.05,78,2,4.56,VG,1715319112
475,kuanda,56.3161,116.0806,284.81,49,99,4.09,RU,1715319112
476,valparaiso,-33.0393,-71.6273,284.9,87,0,2.06,CL,1715319113
477,pitkyaranta,61.5734,31.4792,274.55,53,80,1.99,RU,1715319113
478,champerico,14.3,-91.9167,302.36,71,68,3.47,GT,1715319113
479,ocean city,39.2776,-74.5746,287.29,86,98,4.92,US,1715319113
480,fort mcmurray,56.7268,-111.381,282.88,40,0,2.06,CA,1715319030
481,hammerfest,70.6634,23.6821,274.4,93,75,3.09,NO,1715319114
482,nogliki,51.8333,143.1667,277.23,96,100,3.58,RU,1715319114
483,benjamin constant,-4.3831,-70.0311,297.22,99,46,0.65,BR,1715319114
484,salym,60.0625,71.4789,281.85,35,12,4.25,RU,1715319114
485,guanabacoa,23.1224,-82.3075,298.3,83,20,1.03,CU,1715319114
486,manggar,-2.8833,108.2667,304.25,63,56,4.5,ID,1715319115
487,sarmiento,-45.5882,-69.07,275.47,97,100,4.75,AR,1715319115
488,bardai,11.65,7.2333,301.71,49,100,5.39,NG,1715319115
489,mar del plata,-38.0023,-57.5575,282.64,66,47,2.24,AR,1715319115
490,ji'an,27.1172,114.9793,301.96,62,94,5.64,CN,1715319115
491,bello,6.3373,-75.558,294.1,98,100,5.81,CO,1715319116
492,sittwe,20.15,92.9,304.07,56,25,6.0,MM,1715319116
493,levanger,63.7464,11.2996,278.18,67,51,3.14,NO,1715319116
494,markovo,57.3206,107.0881,283.15,33,62,3.64,RU,1715319116
495,ibirama,-27.0569,-49.5178,292.21,99,100,1.11,BR,1715319116
496,marka,1.7159,44.7717,301.56,76,23,6.22,SO,1715319117
497,chilca,-12.5211,-76.7372,290.93,90,22,2.17,PE,1715319117
498,nar'yan-mar,67.6713,53.087,271.54,95,100,11.62,RU,1715319117
499,aldinga beach,-35.2793,138.4604,296.63,49,0,4.53,AU,1715319117
500,palikir - national government center,6.9248,158.1611,301.56,84,100,3.09,FM,1715319117
501,saint-pierre,-21.3393,55.4781,298.97,65,20,10.29,RE,1715319118
502,taoudenni,22.6783,-3.9836,303.46,8,43,6.43,ML,1715319118
503,darjiling,27.0333,88.2667,292.02,60,82,1.9,IN,1715319118
504,sos'va,59.1766,61.8558,275.96,51,35,5.36,RU,1715319118
505,suva,-18.1416,178.4415,298.86,61,20,3.09,FJ,1715319118
506,murzuq,25.9155,13.9184,293.61,33,6,6.51,LY,1715319043
507,atherton,53.5237,-2.4935,286.6,88,100,1.09,GB,1715319119
508,fort bragg,35.139,-79.006,295.06,84,0,5.66,US,1715319119
509,keelung,25.1283,121.7419,305.09,67,80,5.73,TW,1715319119
510,al bardiyah,31.7561,25.0865,291.57,58,0,7.51,LY,1715319119
511,palmas,-10.2128,-48.3603,298.08,78,0,2.57,BR,1715319119
512,konkwesso,10.8469,4.0984,302.56,61,84,3.67,NG,1715319120
513,xilin hot,43.9667,116.0333,288.35,39,100,10.93,CN,1715319120
514,nyurba,63.2842,118.3319,274.87,43,100,3.45,RU,1715319120
515,hopelchen,19.7667,-89.85,299.88,75,71,3.08,MX,1715319120
516,qusmuryn,52.4503,64.6311,282.45,34,2,7.15,KZ,1715319120
517,la'ie,21.6477,-157.9253,297.13,84,80,4.02,US,1715319120
518,dauphin,51.1494,-100.0502,288.23,58,75,7.72,CA,1715319121
519,ushtobe,45.2514,77.9838,304.09,21,23,7.15,KZ,1715319121
520,urbana,40.1106,-88.2073,285.82,84,100,5.14,US,1715319050
521,agat village,13.3886,144.6585,305.67,72,40,7.72,GU,1715319121
522,balaghat,21.8,80.1833,311.09,26,0,4.53,IN,1715319121
523,vilcun,-38.65,-72.2333,275.56,97,100,0.77,CL,1715319122
524,kivioli,59.3531,26.9711,278.07,97,100,2.14,EE,1715319122
525,akureyri,65.6835,-18.0878,274.11,86,0,3.09,IS,1715319122
526,dubinino,55.6192,89.0911,290.56,33,100,5.34,RU,1715319122
527,prince rupert,54.3161,-130.3201,283.2,87,0,1.03,CA,1715319122
528,borodulikha,50.7184,80.9295,300.04,24,91,3.04,KZ,1715319122
529,baglung,28.2719,83.5898,298.65,42,69,2.45,NP,1715319123
530,paracuru,-3.41,-39.0306,298.28,92,99,3.5,BR,1715319123
531,coos bay,43.3665,-124.2179,290.96,88,0,3.09,US,1715319110
532,mandalgovi,45.7625,106.2708,283.51,18,2,12.76,MN,1715319123
533,nenjiang,49.1833,125.2167,289.24,35,100,7.73,CN,1715319123
534,saldanha,-33.0117,17.9442,286.18,82,55,8.36,ZA,1715319124
535,kokpekty,48.75,82.4,298.92,26,88,6.06,KZ,1715319124
536,basco,20.4487,121.9702,299.97,73,47,8.25,PH,1715319124
537,belo sur tsiribihina,-19.7,44.55,300.53,48,0,2.16,MG,1715319124
538,bandarbeyla,9.4942,50.8122,302.91,69,91,2.12,SO,1715319124
539,korla,41.7597,86.1469,300.34,13,0,4.42,CN,1715319124
540,berwick-upon-tweed,55.7833,-2.0,285.61,88,100,2.58,GB,1715319125
541,montmagny,48.9734,2.3469,286.35,87,24,3.09,FR,1715319125
542,nyaunglebin,17.95,96.7333,313.07,28,0,2.51,MM,1715319125
543,redencao,-4.2258,-38.7306,296.33,97,90,1.45,BR,1715319125
544,south hedland,-20.4089,118.5983,304.11,40,79,7.72,AU,1715319125
545,tongouson,5.0214,120.1328,302.71,73,76,3.09,PH,1715319126
546,lanzhou,36.0564,103.7922,286.57,73,100,6.46,CN,1715319126
547,saint-francois,46.4154,3.9054,282.4,100,100,0.51,FR,1715319126
548,pochep,52.9336,33.4464,280.01,83,100,5.11,RU,1715319126
549,kani keli,-12.9536,45.1033,301.74,72,6,7.36,YT,1715319126
550,vilyuchinsk,52.9306,158.4028,280.3,63,53,3.83,RU,1715319126
551,cururupu,-1.8283,-44.8683,295.96,100,100,0.26,BR,1715319127
552,youhao,47.8667,128.8333,288.95,32,100,5.72,CN,1715319127
553,vernon,50.2581,-119.2691,288.89,41,10,2.06,CA,1715319127
554,altai,46.3722,96.2583,286.03,24,35,4.31,MN,1715319127
555,chibougamau,49.9168,-74.3659,273.94,86,0,1.54,CA,1715319127
556,mount joy,40.1098,-76.5033,287.29,91,100,5.81,US,1715319128
557,baie-comeau,49.2168,-68.1489,273.97,80,0,2.06,CA,1715319128
558,weleri,-6.9713,110.0666,306.09,59,3,3.89,ID,1715319128
559,saudarkrokur,65.7461,-19.6394,277.82,59,97,1.0,IS,1715319128
560,palmer,42.1584,-72.3287,285.11,69,100,2.57,US,1715319128
561,casilda,-33.0442,-61.1681,284.46,82,88,2.22,AR,1715319129
562,sungailiat,-1.85,106.1333,304.58,62,12,5.0,ID,1715319129
563,astrakhan,46.3497,48.0408,287.08,72,0,4.0,RU,1715319129
564,vilyuysk,63.7553,121.6247,272.59,50,100,4.02,RU,1715319130
565,ulanhot,46.0833,122.0833,293.74,40,100,8.43,CN,1715319130
566,harrismith,-28.2728,29.1295,286.38,41,0,1.61,ZA,1715319130
567,olyokminsk,60.3736,120.4264,280.16,36,100,2.31,RU,1715319130
568,peniche,39.3558,-9.3811,289.42,97,84,0.66,PT,1715319130
569,umluj,25.0213,37.2685,302.37,35,12,1.66,SA,1715319130
570,mulayjah,27.271,48.4242,302.49,18,0,3.6,SA,1715319131
571,andalgala,-27.5819,-66.3165,286.57,42,100,0.49,AR,1715319131
572,sault ste. marie,46.5168,-84.3333,283.31,67,100,1.03,CA,1715319131
573,botosani,47.75,26.6667,286.97,66,100,1.25,RO,1715319131
574,yashkul',46.1711,45.3435,287.37,41,99,1.16,RU,1715319131
